rosbagTimestamp,seq,secs,nsecs,frame_id,xo,yo,zo,wo,orientation_covariance,xav,yav,zav,angular_velocity_covariance,xla,yla,zla,linear_acceleration_covariance,normality
1.57E+18,52,1574069785,649981814,base_link,-0.007621185,-0.004687104,-0.234685299,-0.972030225,"[1.0, 0.0, 0.0, 0.0, 1.0, 0.0, 0.0, 0.0, 1.0]",0.000213866,0.000151484,0.002009616,"[1.2184696791468346e-07, 0.0, 0.0, 0.0, 1.2184696791468346e-07, 0.0, 0.0, 0.0, 1.2184696791468346e-07]",-0.10787315,0.08825985,9.80665,"[8.999999999999999e-08, 0.0, 0.0, 0.0, 8.999999999999999e-08, 0.0, 0.0, 0.0, 8.999999999999999e-08]",1
1.57E+18,53,1574069785,870282016,base_link,-0.007844751,-0.004502887,-0.234648046,-0.972038311,"[1.0, 0.0, 0.0, 0.0, 1.0, 0.0, 0.0, 0.0, 1.0]",-0.001187363,-0.000857609,-0.001255972,"[1.2184696791468346e-07, 0.0, 0.0, 0.0, 1.2184696791468346e-07, 0.0, 0.0, 0.0, 1.2184696791468346e-07]",-0.10787315,0.06864655,9.77723005,"[8.999999999999999e-08, 0.0, 0.0, 0.0, 8.999999999999999e-08, 0.0, 0.0, 0.0, 8.999999999999999e-08]",1
1.57E+18,54,1574069786,111150187,base_link,-0.008120401,-0.004272798,-0.234578753,-0.972053811,"[1.0, 0.0, 0.0, 0.0, 1.0, 0.0, 0.0, 0.0, 1.0]",0.001718535,-0.001542747,-0.001125217,"[1.2184696791468346e-07, 0.0, 0.0, 0.0, 1.2184696791468346e-07, 0.0, 0.0, 0.0, 1.2184696791468346e-07]",-0.10787315,0.0784532,9.77723005,"[8.999999999999999e-08, 0.0, 0.0, 0.0, 8.999999999999999e-08, 0.0, 0.0, 0.0, 8.999999999999999e-08]",1
1.57E+18,55,1574069786,357591266,base_link,-0.008404232,-0.004010122,-0.234530372,-0.972064191,"[1.0, 0.0, 0.0, 0.0, 1.0, 0.0, 0.0, 0.0, 1.0]",0.000330002,0.000270217,0.001530935,"[1.2184696791468346e-07, 0.0, 0.0, 0.0, 1.2184696791468346e-07, 0.0, 0.0, 0.0, 1.2184696791468346e-07]",-0.1176798,0.06864655,9.7870367,"[8.999999999999999e-08, 0.0, 0.0, 0.0, 8.999999999999999e-08, 0.0, 0.0, 0.0, 8.999999999999999e-08]",1
1.57E+18,56,1574069786,593430966,base_link,-0.008488704,-0.003894096,-0.234552425,-0.972058608,"[1.0, 0.0, 0.0, 0.0, 1.0, 0.0, 0.0, 0.0, 1.0]",0.000994225,-0.000740422,-0.00359525,"[1.2184696791468346e-07, 0.0, 0.0, 0.0, 1.2184696791468346e-07, 0.0, 0.0, 0.0, 1.2184696791468346e-07]",-0.0980665,0.0784532,9.77723005,"[8.999999999999999e-08, 0.0, 0.0, 0.0, 8.999999999999999e-08, 0.0, 0.0, 0.0, 8.999999999999999e-08]",1
1.57E+18,57,1574069786,846301184,base_link,-0.008411635,-0.003831706,-0.234527381,-0.972065569,"[1.0, 0.0, 0.0, 0.0, 1.0, 0.0, 0.0, 0.0, 1.0]",0.000542726,-0.000277682,-0.000889685,"[1.2184696791468346e-07, 0.0, 0.0, 0.0, 1.2184696791468346e-07, 0.0, 0.0, 0.0, 1.2184696791468346e-07]",-0.10787315,0.0784532,9.7870367,"[8.999999999999999e-08, 0.0, 0.0, 0.0, 8.999999999999999e-08, 0.0, 0.0, 0.0, 8.999999999999999e-08]",1
1.57E+18,58,1574069787,81639253,base_link,-0.008259107,-0.003832091,-0.234504787,-0.972072326,"[1.0, 0.0, 0.0, 0.0, 1.0, 0.0, 0.0, 0.0, 1.0]",7.65E-06,-0.000120354,-0.000310546,"[1.2184696791468346e-07, 0.0, 0.0, 0.0, 1.2184696791468346e-07, 0.0, 0.0, 0.0, 1.2184696791468346e-07]",-0.0980665,0.08825985,9.77723005,"[8.999999999999999e-08, 0.0, 0.0, 0.0, 8.999999999999999e-08, 0.0, 0.0, 0.0, 8.999999999999999e-08]",1
1.57E+18,59,1574069787,320352888,base_link,-0.008131954,-0.003787356,-0.234542564,-0.972064459,"[1.0, 0.0, 0.0, 0.0, 1.0, 0.0, 0.0, 0.0, 1.0]",-0.001450993,0.001151739,-0.0001953,"[1.2184696791468346e-07, 0.0, 0.0, 0.0, 1.2184696791468346e-07, 0.0, 0.0, 0.0, 1.2184696791468346e-07]",-0.10787315,0.0784532,9.7870367,"[8.999999999999999e-08, 0.0, 0.0, 0.0, 8.999999999999999e-08, 0.0, 0.0, 0.0, 8.999999999999999e-08]",1
1.57E+18,60,1574069787,559251095,base_link,-0.008166998,-0.003697888,-0.234511614,-0.972071977,"[1.0, 0.0, 0.0, 0.0, 1.0, 0.0, 0.0, 0.0, 1.0]",-0.000282415,0.000469061,0.000168266,"[1.2184696791468346e-07, 0.0, 0.0, 0.0, 1.2184696791468346e-07, 0.0, 0.0, 0.0, 1.2184696791468346e-07]",-0.10787315,0.08825985,9.77723005,"[8.999999999999999e-08, 0.0, 0.0, 0.0, 8.999999999999999e-08, 0.0, 0.0, 0.0, 8.999999999999999e-08]",1
1.57E+18,61,1574069787,811567596,base_link,-0.008385852,-0.003619899,-0.234486903,-0.972076368,"[1.0, 0.0, 0.0, 0.0, 1.0, 0.0, 0.0, 0.0, 1.0]",0.000588052,0.000968357,-0.000151683,"[1.2184696791468346e-07, 0.0, 0.0, 0.0, 1.2184696791468346e-07, 0.0, 0.0, 0.0, 1.2184696791468346e-07]",-0.10787315,0.06864655,9.79684335,"[8.999999999999999e-08, 0.0, 0.0, 0.0, 8.999999999999999e-08, 0.0, 0.0, 0.0, 8.999999999999999e-08]",1
1.57E+18,62,1574069788,45061602,base_link,-0.00854835,-0.003527536,-0.234472697,-0.972078719,"[1.0, 0.0, 0.0, 0.0, 1.0, 0.0, 0.0, 0.0, 1.0]",0.000726824,0.000720219,-0.001413225,"[1.2184696791468346e-07, 0.0, 0.0, 0.0, 1.2184696791468346e-07, 0.0, 0.0, 0.0, 1.2184696791468346e-07]",-0.0980665,0.0980665,9.7870367,"[8.999999999999999e-08, 0.0, 0.0, 0.0, 8.999999999999999e-08, 0.0, 0.0, 0.0, 8.999999999999999e-08]",1
1.57E+18,63,1574069788,280684145,base_link,-0.00849512,-0.003502702,-0.234469066,-0.972080152,"[1.0, 0.0, 0.0, 0.0, 1.0, 0.0, 0.0, 0.0, 1.0]",-0.00058129,0.001727811,0.000447861,"[1.2184696791468346e-07, 0.0, 0.0, 0.0, 1.2184696791468346e-07, 0.0, 0.0, 0.0, 1.2184696791468346e-07]",-0.10787315,0.0784532,9.7870367,"[8.999999999999999e-08, 0.0, 0.0, 0.0, 8.999999999999999e-08, 0.0, 0.0, 0.0, 8.999999999999999e-08]",1
1.57E+18,64,1574069788,523066866,base_link,-0.00826459,-0.003502308,-0.234504769,-0.972073528,"[1.0, 0.0, 0.0, 0.0, 1.0, 0.0, 0.0, 0.0, 1.0]",-0.001721766,0.00150988,0.000671123,"[1.2184696791468346e-07, 0.0, 0.0, 0.0, 1.2184696791468346e-07, 0.0, 0.0, 0.0, 1.2184696791468346e-07]",-0.10787315,0.0784532,9.7870367,"[8.999999999999999e-08, 0.0, 0.0, 0.0, 8.999999999999999e-08, 0.0, 0.0, 0.0, 8.999999999999999e-08]",1
1.57E+18,65,1574069788,762052190,base_link,-0.008123287,-0.003485709,-0.234479732,-0.972080818,"[1.0, 0.0, 0.0, 0.0, 1.0, 0.0, 0.0, 0.0, 1.0]",-0.000181804,-0.000166736,-0.001958597,"[1.2184696791468346e-07, 0.0, 0.0, 0.0, 1.2184696791468346e-07, 0.0, 0.0, 0.0, 1.2184696791468346e-07]",-0.10787315,0.08825985,9.81645665,"[8.999999999999999e-08, 0.0, 0.0, 0.0, 8.999999999999999e-08, 0.0, 0.0, 0.0, 8.999999999999999e-08]",1
1.57E+18,66,1574069788,994517044,base_link,-0.00802102,-0.003425721,-0.23441008,-0.972098679,"[1.0, 0.0, 0.0, 0.0, 1.0, 0.0, 0.0, 0.0, 1.0]",0.000948657,-0.001027484,0.000799049,"[1.2184696791468346e-07, 0.0, 0.0, 0.0, 1.2184696791468346e-07, 0.0, 0.0, 0.0, 1.2184696791468346e-07]",-0.10787315,0.0784532,9.79684335,"[8.999999999999999e-08, 0.0, 0.0, 0.0, 8.999999999999999e-08, 0.0, 0.0, 0.0, 8.999999999999999e-08]",1
1.57E+18,67,1574069789,240143575,base_link,-0.007939567,-0.003424572,-0.234367084,-0.972109719,"[1.0, 0.0, 0.0, 0.0, 1.0, 0.0, 0.0, 0.0, 1.0]",-0.000276576,0.000935694,-0.00056531,"[1.2184696791468346e-07, 0.0, 0.0, 0.0, 1.2184696791468346e-07, 0.0, 0.0, 0.0, 1.2184696791468346e-07]",-0.0980665,0.0784532,9.7870367,"[8.999999999999999e-08, 0.0, 0.0, 0.0, 8.999999999999999e-08, 0.0, 0.0, 0.0, 8.999999999999999e-08]",1
1.57E+18,68,1574069789,470184685,base_link,-0.007968465,-0.00342359,-0.234343993,-0.972115053,"[1.0, 0.0, 0.0, 0.0, 1.0, 0.0, 0.0, 0.0, 1.0]",-0.00088261,-0.000706063,-0.002731406,"[1.2184696791468346e-07, 0.0, 0.0, 0.0, 1.2184696791468346e-07, 0.0, 0.0, 0.0, 1.2184696791468346e-07]",-0.10787315,0.06864655,9.80665,"[8.999999999999999e-08, 0.0, 0.0, 0.0, 8.999999999999999e-08, 0.0, 0.0, 0.0, 8.999999999999999e-08]",1
1.57E+18,69,1574069789,712243078,base_link,-0.008035301,-0.003450387,-0.234341745,-0.97211495,"[1.0, 0.0, 0.0, 0.0, 1.0, 0.0, 0.0, 0.0, 1.0]",0.000916903,0.000218247,0.001493177,"[1.2184696791468346e-07, 0.0, 0.0, 0.0, 1.2184696791468346e-07, 0.0, 0.0, 0.0, 1.2184696791468346e-07]",-0.10787315,0.0784532,9.77723005,"[8.999999999999999e-08, 0.0, 0.0, 0.0, 8.999999999999999e-08, 0.0, 0.0, 0.0, 8.999999999999999e-08]",1
1.57E+18,70,1574069789,955134886,base_link,-0.008042063,-0.003512912,-0.234355293,-0.972111404,"[1.0, 0.0, 0.0, 0.0, 1.0, 0.0, 0.0, 0.0, 1.0]",0.001039024,0.000834432,-0.00045498,"[1.2184696791468346e-07, 0.0, 0.0, 0.0, 1.2184696791468346e-07, 0.0, 0.0, 0.0, 1.2184696791468346e-07]",-0.08825985,0.0784532,9.77723005,"[8.999999999999999e-08, 0.0, 0.0, 0.0, 8.999999999999999e-08, 0.0, 0.0, 0.0, 8.999999999999999e-08]",1
1.57E+18,71,1574069790,193078825,base_link,-0.00805416,-0.003456654,-0.23428244,-0.972129066,"[1.0, 0.0, 0.0, 0.0, 1.0, 0.0, 0.0, 0.0, 1.0]",-0.000425078,0.000855639,-0.002121192,"[1.2184696791468346e-07, 0.0, 0.0, 0.0, 1.2184696791468346e-07, 0.0, 0.0, 0.0, 1.2184696791468346e-07]",-0.0980665,0.08825985,9.7870367,"[8.999999999999999e-08, 0.0, 0.0, 0.0, 8.999999999999999e-08, 0.0, 0.0, 0.0, 8.999999999999999e-08]",1
1.57E+18,72,1574069790,449777341,base_link,-0.008077256,-0.003446936,-0.23423255,-0.972140931,"[1.0, 0.0, 0.0, 0.0, 1.0, 0.0, 0.0, 0.0, 1.0]",0.001950328,0.001080959,-0.001037078,"[1.2184696791468346e-07, 0.0, 0.0, 0.0, 1.2184696791468346e-07, 0.0, 0.0, 0.0, 1.2184696791468346e-07]",-0.0980665,0.08825985,9.79684335,"[8.999999999999999e-08, 0.0, 0.0, 0.0, 8.999999999999999e-08, 0.0, 0.0, 0.0, 8.999999999999999e-08]",1
1.57E+18,73,1574069790,690191718,base_link,-0.008009281,-0.003512245,-0.234238058,-0.972139932,"[1.0, 0.0, 0.0, 0.0, 1.0, 0.0, 0.0, 0.0, 1.0]",-4.19E-05,0.000296873,-0.000136186,"[1.2184696791468346e-07, 0.0, 0.0, 0.0, 1.2184696791468346e-07, 0.0, 0.0, 0.0, 1.2184696791468346e-07]",-0.10787315,0.06864655,9.79684335,"[8.999999999999999e-08, 0.0, 0.0, 0.0, 8.999999999999999e-08, 0.0, 0.0, 0.0, 8.999999999999999e-08]",1
1.57E+18,74,1574069790,915813352,base_link,-0.007947496,-0.003540848,-0.234230577,-0.972142138,"[1.0, 0.0, 0.0, 0.0, 1.0, 0.0, 0.0, 0.0, 1.0]",-0.000153532,0.001211393,0.000580035,"[1.2184696791468346e-07, 0.0, 0.0, 0.0, 1.2184696791468346e-07, 0.0, 0.0, 0.0, 1.2184696791468346e-07]",-0.0980665,0.0784532,9.80665,"[8.999999999999999e-08, 0.0, 0.0, 0.0, 8.999999999999999e-08, 0.0, 0.0, 0.0, 8.999999999999999e-08]",1
1.57E+18,75,1574069791,169881942,base_link,-0.007813889,-0.003549396,-0.23421823,-0.972146165,"[1.0, 0.0, 0.0, 0.0, 1.0, 0.0, 0.0, 0.0, 1.0]",0.00106366,-0.001252313,0.001858963,"[1.2184696791468346e-07, 0.0, 0.0, 0.0, 1.2184696791468346e-07, 0.0, 0.0, 0.0, 1.2184696791468346e-07]",-0.10787315,0.08825985,9.7870367,"[8.999999999999999e-08, 0.0, 0.0, 0.0, 8.999999999999999e-08, 0.0, 0.0, 0.0, 8.999999999999999e-08]",1
1.57E+18,76,1574069791,406362985,base_link,-0.007704499,-0.003548603,-0.234258032,-0.97213745,"[1.0, 0.0, 0.0, 0.0, 1.0, 0.0, 0.0, 0.0, 1.0]",-0.001461256,0.000176355,0.001309728,"[1.2184696791468346e-07, 0.0, 0.0, 0.0, 1.2184696791468346e-07, 0.0, 0.0, 0.0, 1.2184696791468346e-07]",-0.1176798,0.0784532,9.79684335,"[8.999999999999999e-08, 0.0, 0.0, 0.0, 8.999999999999999e-08, 0.0, 0.0, 0.0, 8.999999999999999e-08]",1
1.57E+18,77,1574069791,649696338,base_link,-0.007727758,-0.003587985,-0.234247789,-0.97213959,"[1.0, 0.0, 0.0, 0.0, 1.0, 0.0, 0.0, 0.0, 1.0]",0.001316365,-1.78E-05,0.000463185,"[1.2184696791468346e-07, 0.0, 0.0, 0.0, 1.2184696791468346e-07, 0.0, 0.0, 0.0, 1.2184696791468346e-07]",-0.10787315,0.08825985,9.7870367,"[8.999999999999999e-08, 0.0, 0.0, 0.0, 8.999999999999999e-08, 0.0, 0.0, 0.0, 8.999999999999999e-08]",1
1.57E+18,78,1574069791,870906459,base_link,-0.007770643,-0.003620704,-0.234299288,-0.972126716,"[1.0, 0.0, 0.0, 0.0, 1.0, 0.0, 0.0, 0.0, 1.0]",0.00064007,0.000718795,0.000285765,"[1.2184696791468346e-07, 0.0, 0.0, 0.0, 1.2184696791468346e-07, 0.0, 0.0, 0.0, 1.2184696791468346e-07]",-0.0980665,0.0980665,9.7674234,"[8.999999999999999e-08, 0.0, 0.0, 0.0, 8.999999999999999e-08, 0.0, 0.0, 0.0, 8.999999999999999e-08]",1
1.57E+18,79,1574069792,117773345,base_link,-0.007876618,-0.003635751,-0.234295686,-0.972126675,"[1.0, 0.0, 0.0, 0.0, 1.0, 0.0, 0.0, 0.0, 1.0]",-0.001823155,0.000939099,0.000297313,"[1.2184696791468346e-07, 0.0, 0.0, 0.0, 1.2184696791468346e-07, 0.0, 0.0, 0.0, 1.2184696791468346e-07]",-0.0980665,0.0784532,9.79684335,"[8.999999999999999e-08, 0.0, 0.0, 0.0, 8.999999999999999e-08, 0.0, 0.0, 0.0, 8.999999999999999e-08]",1
1.57E+18,80,1574069792,364917188,base_link,-0.007945482,-0.003647924,-0.234294484,-0.972126358,"[1.0, 0.0, 0.0, 0.0, 1.0, 0.0, 0.0, 0.0, 1.0]",0.000720425,-0.000647636,0.000284829,"[1.2184696791468346e-07, 0.0, 0.0, 0.0, 1.2184696791468346e-07, 0.0, 0.0, 0.0, 1.2184696791468346e-07]",-0.10787315,0.0784532,9.79684335,"[8.999999999999999e-08, 0.0, 0.0, 0.0, 8.999999999999999e-08, 0.0, 0.0, 0.0, 8.999999999999999e-08]",1
1.57E+18,81,1574069792,595084629,base_link,-0.008005725,-0.003696257,-0.234350322,-0.972112222,"[1.0, 0.0, 0.0, 0.0, 1.0, 0.0, 0.0, 0.0, 1.0]",-0.000831743,-0.000263547,-0.000866976,"[1.2184696791468346e-07, 0.0, 0.0, 0.0, 1.2184696791468346e-07, 0.0, 0.0, 0.0, 1.2184696791468346e-07]",-0.0980665,0.0784532,9.7870367,"[8.999999999999999e-08, 0.0, 0.0, 0.0, 8.999999999999999e-08, 0.0, 0.0, 0.0, 8.999999999999999e-08]",1
1.57E+18,82,1574069792,846661337,base_link,-0.008089708,-0.003724297,-0.234308032,-0.972121614,"[1.0, 0.0, 0.0, 0.0, 1.0, 0.0, 0.0, 0.0, 1.0]",-0.000228437,-0.000416707,1.54E-05,"[1.2184696791468346e-07, 0.0, 0.0, 0.0, 1.2184696791468346e-07, 0.0, 0.0, 0.0, 1.2184696791468346e-07]",-0.10787315,0.0784532,9.7870367,"[8.999999999999999e-08, 0.0, 0.0, 0.0, 8.999999999999999e-08, 0.0, 0.0, 0.0, 8.999999999999999e-08]",1
1.57E+18,83,1574069793,97383737,base_link,-0.008133112,-0.00369442,-0.234315436,-0.972119581,"[1.0, 0.0, 0.0, 0.0, 1.0, 0.0, 0.0, 0.0, 1.0]",-0.000579911,0.000450445,0.001280371,"[1.2184696791468346e-07, 0.0, 0.0, 0.0, 1.2184696791468346e-07, 0.0, 0.0, 0.0, 1.2184696791468346e-07]",-0.0980665,0.08825985,9.7870367,"[8.999999999999999e-08, 0.0, 0.0, 0.0, 8.999999999999999e-08, 0.0, 0.0, 0.0, 8.999999999999999e-08]",1
1.57E+18,84,1574069793,320792199,base_link,-0.008110017,-0.003751356,-0.234292096,-0.972125182,"[1.0, 0.0, 0.0, 0.0, 1.0, 0.0, 0.0, 0.0, 1.0]",-0.00099986,0.002061496,-0.000209145,"[1.2184696791468346e-07, 0.0, 0.0, 0.0, 1.2184696791468346e-07, 0.0, 0.0, 0.0, 1.2184696791468346e-07]",-0.0980665,0.0784532,9.7870367,"[8.999999999999999e-08, 0.0, 0.0, 0.0, 8.999999999999999e-08, 0.0, 0.0, 0.0, 8.999999999999999e-08]",1
1.57E+18,85,1574069793,556934787,base_link,-0.008083666,-0.003844833,-0.234283941,-0.972127001,"[1.0, 0.0, 0.0, 0.0, 1.0, 0.0, 0.0, 0.0, 1.0]",0.002093704,-0.001912234,0.000795671,"[1.2184696791468346e-07, 0.0, 0.0, 0.0, 1.2184696791468346e-07, 0.0, 0.0, 0.0, 1.2184696791468346e-07]",-0.10787315,0.08825985,9.7870367,"[8.999999999999999e-08, 0.0, 0.0, 0.0, 8.999999999999999e-08, 0.0, 0.0, 0.0, 8.999999999999999e-08]",1
1.57E+18,86,1574069793,797641083,base_link,-0.008164958,-0.003881087,-0.234311678,-0.972119493,"[1.0, 0.0, 0.0, 0.0, 1.0, 0.0, 0.0, 0.0, 1.0]",-0.0002923,0.000900534,-0.000801228,"[1.2184696791468346e-07, 0.0, 0.0, 0.0, 1.2184696791468346e-07, 0.0, 0.0, 0.0, 1.2184696791468346e-07]",-0.10787315,0.0784532,9.7870367,"[8.999999999999999e-08, 0.0, 0.0, 0.0, 8.999999999999999e-08, 0.0, 0.0, 0.0, 8.999999999999999e-08]",1
1.57E+18,87,1574069794,76140189,base_link,-0.008385001,-0.003847072,-0.234311191,-0.972117872,"[1.0, 0.0, 0.0, 0.0, 1.0, 0.0, 0.0, 0.0, 1.0]",-0.000928858,-0.002207624,-0.000402523,"[1.2184696791468346e-07, 0.0, 0.0, 0.0, 1.2184696791468346e-07, 0.0, 0.0, 0.0, 1.2184696791468346e-07]",-0.10787315,0.0784532,9.77723005,"[8.999999999999999e-08, 0.0, 0.0, 0.0, 8.999999999999999e-08, 0.0, 0.0, 0.0, 8.999999999999999e-08]",1
1.57E+18,88,1574069794,382524910,base_link,-0.008497321,-0.003824299,-0.234254974,-0.972130535,"[1.0, 0.0, 0.0, 0.0, 1.0, 0.0, 0.0, 0.0, 1.0]",-0.000792317,0.001109814,-0.00010768,"[1.2184696791468346e-07, 0.0, 0.0, 0.0, 1.2184696791468346e-07, 0.0, 0.0, 0.0, 1.2184696791468346e-07]",-0.1176798,0.0784532,9.7870367,"[8.999999999999999e-08, 0.0, 0.0, 0.0, 8.999999999999999e-08, 0.0, 0.0, 0.0, 8.999999999999999e-08]",1
1.57E+18,89,1574069794,638662335,base_link,-0.008387613,-0.003866774,-0.234259013,-0.972130347,"[1.0, 0.0, 0.0, 0.0, 1.0, 0.0, 0.0, 0.0, 1.0]",-0.001230877,-0.000205838,-0.00095448,"[1.2184696791468346e-07, 0.0, 0.0, 0.0, 1.2184696791468346e-07, 0.0, 0.0, 0.0, 1.2184696791468346e-07]",-0.0980665,0.08825985,9.7870367,"[8.999999999999999e-08, 0.0, 0.0, 0.0, 8.999999999999999e-08, 0.0, 0.0, 0.0, 8.999999999999999e-08]",1
1.57E+18,90,1574069794,931973708,base_link,-0.008240441,-0.003939253,-0.234299279,-0.97212161,"[1.0, 0.0, 0.0, 0.0, 1.0, 0.0, 0.0, 0.0, 1.0]",-0.00057814,-0.000607386,-1.46E-05,"[1.2184696791468346e-07, 0.0, 0.0, 0.0, 1.2184696791468346e-07, 0.0, 0.0, 0.0, 1.2184696791468346e-07]",-0.10787315,0.08825985,9.81645665,"[8.999999999999999e-08, 0.0, 0.0, 0.0, 8.999999999999999e-08, 0.0, 0.0, 0.0, 8.999999999999999e-08]",1
1.57E+18,91,1574069795,210738060,base_link,-0.00806705,-0.004068082,-0.234337905,-0.972113224,"[1.0, 0.0, 0.0, 0.0, 1.0, 0.0, 0.0, 0.0, 1.0]",0.000540001,0.001242357,-0.000736733,"[1.2184696791468346e-07, 0.0, 0.0, 0.0, 1.2184696791468346e-07, 0.0, 0.0, 0.0, 1.2184696791468346e-07]",-0.0980665,0.0980665,9.7674234,"[8.999999999999999e-08, 0.0, 0.0, 0.0, 8.999999999999999e-08, 0.0, 0.0, 0.0, 8.999999999999999e-08]",1
1.57E+18,92,1574069795,490550880,base_link,-0.007935144,-0.004128171,-0.234344465,-0.972112475,"[1.0, 0.0, 0.0, 0.0, 1.0, 0.0, 0.0, 0.0, 1.0]",-0.001560578,0.00095114,0.000411609,"[1.2184696791468346e-07, 0.0, 0.0, 0.0, 1.2184696791468346e-07, 0.0, 0.0, 0.0, 1.2184696791468346e-07]",-0.0980665,0.0784532,9.7870367,"[8.999999999999999e-08, 0.0, 0.0, 0.0, 8.999999999999999e-08, 0.0, 0.0, 0.0, 8.999999999999999e-08]",1
1.57E+18,93,1574069795,806884529,base_link,-0.007987682,-0.004133524,-0.234398377,-0.972099024,"[1.0, 0.0, 0.0, 0.0, 1.0, 0.0, 0.0, 0.0, 1.0]",0.003804172,-0.00768542,0.002729839,"[1.2184696791468346e-07, 0.0, 0.0, 0.0, 1.2184696791468346e-07, 0.0, 0.0, 0.0, 1.2184696791468346e-07]",-0.10787315,0.08825985,9.77723005,"[8.999999999999999e-08, 0.0, 0.0, 0.0, 8.999999999999999e-08, 0.0, 0.0, 0.0, 8.999999999999999e-08]",1
1.57E+18,94,1574069796,115723120,base_link,-0.008076311,-0.004097548,-0.234541683,-0.972063878,"[1.0, 0.0, 0.0, 0.0, 1.0, 0.0, 0.0, 0.0, 1.0]",0.003271069,0.001741402,0.000386319,"[1.2184696791468346e-07, 0.0, 0.0, 0.0, 1.2184696791468346e-07, 0.0, 0.0, 0.0, 1.2184696791468346e-07]",-0.08825985,0.0392266,9.7870367,"[8.999999999999999e-08, 0.0, 0.0, 0.0, 8.999999999999999e-08, 0.0, 0.0, 0.0, 8.999999999999999e-08]",1
1.57E+18,95,1574069796,392817116,base_link,-0.008219652,-0.004101978,-0.234523818,-0.972066968,"[1.0, 0.0, 0.0, 0.0, 1.0, 0.0, 0.0, 0.0, 1.0]",0.001408745,-0.000189952,0.001452478,"[1.2184696791468346e-07, 0.0, 0.0, 0.0, 1.2184696791468346e-07, 0.0, 0.0, 0.0, 1.2184696791468346e-07]",-0.10787315,0.0784532,9.77723005,"[8.999999999999999e-08, 0.0, 0.0, 0.0, 8.999999999999999e-08, 0.0, 0.0, 0.0, 8.999999999999999e-08]",1
1.57E+18,96,1574069796,695480776,base_link,-0.008485679,-0.004097813,-0.234568055,-0.972054026,"[1.0, 0.0, 0.0, 0.0, 1.0, 0.0, 0.0, 0.0, 1.0]",0.002009124,0.001412659,0.000417217,"[1.2184696791468346e-07, 0.0, 0.0, 0.0, 1.2184696791468346e-07, 0.0, 0.0, 0.0, 1.2184696791468346e-07]",-0.14709975,0.0784532,9.7870367,"[8.999999999999999e-08, 0.0, 0.0, 0.0, 8.999999999999999e-08, 0.0, 0.0, 0.0, 8.999999999999999e-08]",1
1.57E+18,97,1574069796,985211853,base_link,-0.008662861,-0.004144533,-0.234649427,-0.972032625,"[1.0, 0.0, 0.0, 0.0, 1.0, 0.0, 0.0, 0.0, 1.0]",-4.41E-05,0.002079461,7.70E-06,"[1.2184696791468346e-07, 0.0, 0.0, 0.0, 1.2184696791468346e-07, 0.0, 0.0, 0.0, 1.2184696791468346e-07]",-0.0980665,0.08825985,9.75761675,"[8.999999999999999e-08, 0.0, 0.0, 0.0, 8.999999999999999e-08, 0.0, 0.0, 0.0, 8.999999999999999e-08]",1
1.57E+18,98,1574069797,292831381,base_link,-0.008860915,-0.004070306,-0.234715098,-0.972015298,"[1.0, 0.0, 0.0, 0.0, 1.0, 0.0, 0.0, 0.0, 1.0]",0.000639078,0.0006681,-8.02E-05,"[1.2184696791468346e-07, 0.0, 0.0, 0.0, 1.2184696791468346e-07, 0.0, 0.0, 0.0, 1.2184696791468346e-07]",-0.10787315,0.08825985,9.7870367,"[8.999999999999999e-08, 0.0, 0.0, 0.0, 8.999999999999999e-08, 0.0, 0.0, 0.0, 8.999999999999999e-08]",1
1.57E+18,99,1574069797,523215202,base_link,-0.008816928,-0.003977863,-0.234753443,-0.972006821,"[1.0, 0.0, 0.0, 0.0, 1.0, 0.0, 0.0, 0.0, 1.0]",0.001050558,0.000666803,0.000281529,"[1.2184696791468346e-07, 0.0, 0.0, 0.0, 1.2184696791468346e-07, 0.0, 0.0, 0.0, 1.2184696791468346e-07]",-0.14709975,0.0784532,9.79684335,"[8.999999999999999e-08, 0.0, 0.0, 0.0, 8.999999999999999e-08, 0.0, 0.0, 0.0, 8.999999999999999e-08]",1
1.57E+18,100,1574069797,829549806,base_link,-0.00875536,-0.003875315,-0.234768729,-0.9720041,"[1.0, 0.0, 0.0, 0.0, 1.0, 0.0, 0.0, 0.0, 1.0]",-0.000354869,-0.000745704,-0.000627126,"[1.2184696791468346e-07, 0.0, 0.0, 0.0, 1.2184696791468346e-07, 0.0, 0.0, 0.0, 1.2184696791468346e-07]",-0.0980665,0.0980665,9.77723005,"[8.999999999999999e-08, 0.0, 0.0, 0.0, 8.999999999999999e-08, 0.0, 0.0, 0.0, 8.999999999999999e-08]",1
1.57E+18,101,1574069798,158713375,base_link,-0.008660593,-0.00392433,-0.234847002,-0.971985843,"[1.0, 0.0, 0.0, 0.0, 1.0, 0.0, 0.0, 0.0, 1.0]",-0.000325195,-0.000910641,0.001252176,"[1.2184696791468346e-07, 0.0, 0.0, 0.0, 1.2184696791468346e-07, 0.0, 0.0, 0.0, 1.2184696791468346e-07]",-0.10787315,0.0784532,9.79684335,"[8.999999999999999e-08, 0.0, 0.0, 0.0, 8.999999999999999e-08, 0.0, 0.0, 0.0, 8.999999999999999e-08]",1
1.57E+18,102,1574069798,446852570,base_link,-0.008608169,-0.004040824,-0.234969893,-0.971956131,"[1.0, 0.0, 0.0, 0.0, 1.0, 0.0, 0.0, 0.0, 1.0]",-1.03E-05,-0.001189076,0.000332094,"[1.2184696791468346e-07, 0.0, 0.0, 0.0, 1.2184696791468346e-07, 0.0, 0.0, 0.0, 1.2184696791468346e-07]",-0.1176798,0.0784532,9.81645665,"[8.999999999999999e-08, 0.0, 0.0, 0.0, 8.999999999999999e-08, 0.0, 0.0, 0.0, 8.999999999999999e-08]",1
1.57E+18,103,1574069798,723057136,base_link,-0.008420463,-0.004231467,-0.235043378,-0.971939196,"[1.0, 0.0, 0.0, 0.0, 1.0, 0.0, 0.0, 0.0, 1.0]",0.000118657,-0.002195143,-0.000908738,"[1.2184696791468346e-07, 0.0, 0.0, 0.0, 1.2184696791468346e-07, 0.0, 0.0, 0.0, 1.2184696791468346e-07]",-0.10787315,0.08825985,9.7870367,"[8.999999999999999e-08, 0.0, 0.0, 0.0, 8.999999999999999e-08, 0.0, 0.0, 0.0, 8.999999999999999e-08]",1
1.57E+18,104,1574069799,49201001,base_link,-0.008256166,-0.004412026,-0.235179818,-0.971906797,"[1.0, 0.0, 0.0, 0.0, 1.0, 0.0, 0.0, 0.0, 1.0]",-9.49E-05,-1.92E-05,0.000747183,"[1.2184696791468346e-07, 0.0, 0.0, 0.0, 1.2184696791468346e-07, 0.0, 0.0, 0.0, 1.2184696791468346e-07]",-0.12748645,0.06864655,9.7674234,"[8.999999999999999e-08, 0.0, 0.0, 0.0, 8.999999999999999e-08, 0.0, 0.0, 0.0, 8.999999999999999e-08]",1
1.57E+18,105,1574069799,331958458,base_link,-0.008170393,-0.004573236,-0.235230739,-0.971894454,"[1.0, 0.0, 0.0, 0.0, 1.0, 0.0, 0.0, 0.0, 1.0]",-0.000209096,-0.00118735,-0.00022316,"[1.2184696791468346e-07, 0.0, 0.0, 0.0, 1.2184696791468346e-07, 0.0, 0.0, 0.0, 1.2184696791468346e-07]",-0.0980665,0.06864655,9.80665,"[8.999999999999999e-08, 0.0, 0.0, 0.0, 8.999999999999999e-08, 0.0, 0.0, 0.0, 8.999999999999999e-08]",1
1.57E+18,106,1574069799,609891102,base_link,-0.007987975,-0.004618031,-0.235329884,-0.971871757,"[1.0, 0.0, 0.0, 0.0, 1.0, 0.0, 0.0, 0.0, 1.0]",-0.001307315,-0.002370411,-1.23E-05,"[1.2184696791468346e-07, 0.0, 0.0, 0.0, 1.2184696791468346e-07, 0.0, 0.0, 0.0, 1.2184696791468346e-07]",-0.08825985,0.06864655,9.7870367,"[8.999999999999999e-08, 0.0, 0.0, 0.0, 8.999999999999999e-08, 0.0, 0.0, 0.0, 8.999999999999999e-08]",1
1.57E+18,107,1574069799,885433709,base_link,-0.007833585,-0.00446333,-0.235476655,-0.971838185,"[1.0, 0.0, 0.0, 0.0, 1.0, 0.0, 0.0, 0.0, 1.0]",-0.000695282,-0.023336643,-0.002252895,"[1.2184696791468346e-07, 0.0, 0.0, 0.0, 1.2184696791468346e-07, 0.0, 0.0, 0.0, 1.2184696791468346e-07]",-0.0784532,0.10787315,9.8262633,"[8.999999999999999e-08, 0.0, 0.0, 0.0, 8.999999999999999e-08, 0.0, 0.0, 0.0, 8.999999999999999e-08]",1
1.57E+18,108,1574069800,208718180,base_link,-0.007230533,-0.006480444,-0.235594279,-0.971802994,"[1.0, 0.0, 0.0, 0.0, 1.0, 0.0, 0.0, 0.0, 1.0]",0.006877067,0.029688595,-0.02859698,"[1.2184696791468346e-07, 0.0, 0.0, 0.0, 1.2184696791468346e-07, 0.0, 0.0, 0.0, 1.2184696791468346e-07]",-0.2157463,0.1765197,9.7870367,"[8.999999999999999e-08, 0.0, 0.0, 0.0, 8.999999999999999e-08, 0.0, 0.0, 0.0, 8.999999999999999e-08]",1
1.57E+18,109,1574069800,505433428,base_link,-0.007382956,-0.005397577,-0.235701509,-0.971782464,"[1.0, 0.0, 0.0, 0.0, 1.0, 0.0, 0.0, 0.0, 1.0]",-0.002951737,-0.031545512,0.014995381,"[1.2184696791468346e-07, 0.0, 0.0, 0.0, 1.2184696791468346e-07, 0.0, 0.0, 0.0, 1.2184696791468346e-07]",-0.16671305,0.0784532,9.77723005,"[8.999999999999999e-08, 0.0, 0.0, 0.0, 8.999999999999999e-08, 0.0, 0.0, 0.0, 8.999999999999999e-08]",1
1.57E+18,110,1574069800,809229808,base_link,-0.007488029,-0.004632705,-0.235464633,-0.971843029,"[1.0, 0.0, 0.0, 0.0, 1.0, 0.0, 0.0, 0.0, 1.0]",-0.003061484,-0.052459769,0.006200432,"[1.2184696791468346e-07, 0.0, 0.0, 0.0, 1.2184696791468346e-07, 0.0, 0.0, 0.0, 1.2184696791468346e-07]",-0.0980665,-0.0392266,9.7478101,"[8.999999999999999e-08, 0.0, 0.0, 0.0, 8.999999999999999e-08, 0.0, 0.0, 0.0, 8.999999999999999e-08]",1
1.57E+18,111,1574069801,88289575,base_link,-0.007757001,-0.003304216,-0.235321511,-0.97188101,"[1.0, 0.0, 0.0, 0.0, 1.0, 0.0, 0.0, 0.0, 1.0]",0.004822312,-0.034714188,0.00854694,"[1.2184696791468346e-07, 0.0, 0.0, 0.0, 1.2184696791468346e-07, 0.0, 0.0, 0.0, 1.2184696791468346e-07]",-0.10787315,0.0392266,9.79684335,"[8.999999999999999e-08, 0.0, 0.0, 0.0, 8.999999999999999e-08, 0.0, 0.0, 0.0, 8.999999999999999e-08]",1
1.57E+18,112,1574069801,352562690,base_link,-0.007545366,-0.003649961,-0.235185979,-0.971914245,"[1.0, 0.0, 0.0, 0.0, 1.0, 0.0, 0.0, 0.0, 1.0]",-0.01681276,0.022252681,-0.004449344,"[1.2184696791468346e-07, 0.0, 0.0, 0.0, 1.2184696791468346e-07, 0.0, 0.0, 0.0, 1.2184696791468346e-07]",0.1176798,0.06864655,9.7870367,"[8.999999999999999e-08, 0.0, 0.0, 0.0, 8.999999999999999e-08, 0.0, 0.0, 0.0, 8.999999999999999e-08]",1
1.57E+18,113,1574069801,660799363,base_link,-0.007297004,-0.004417275,-0.235295706,-0.971886399,"[1.0, 0.0, 0.0, 0.0, 1.0, 0.0, 0.0, 0.0, 1.0]",-0.015490923,0.012883808,-0.01985468,"[1.2184696791468346e-07, 0.0, 0.0, 0.0, 1.2184696791468346e-07, 0.0, 0.0, 0.0, 1.2184696791468346e-07]",-0.08825985,0.08825985,9.7674234,"[8.999999999999999e-08, 0.0, 0.0, 0.0, 8.999999999999999e-08, 0.0, 0.0, 0.0, 8.999999999999999e-08]",1
1.57E+18,114,1574069801,948711572,base_link,-0.006406207,-0.008626195,-0.235091916,-0.971913751,"[1.0, 0.0, 0.0, 0.0, 1.0, 0.0, 0.0, 0.0, 1.0]",-0.000583741,-0.007840196,-0.023944378,"[1.2184696791468346e-07, 0.0, 0.0, 0.0, 1.2184696791468346e-07, 0.0, 0.0, 0.0, 1.2184696791468346e-07]",-0.14709975,0.0392266,9.77723005,"[8.999999999999999e-08, 0.0, 0.0, 0.0, 8.999999999999999e-08, 0.0, 0.0, 0.0, 8.999999999999999e-08]",1
1.57E+18,115,1574069802,240339387,base_link,-0.006267718,-0.008182901,-0.234293348,-0.972111302,"[1.0, 0.0, 0.0, 0.0, 1.0, 0.0, 0.0, 0.0, 1.0]",0.002371943,-0.015637776,0.010064174,"[1.2184696791468346e-07, 0.0, 0.0, 0.0, 1.2184696791468346e-07, 0.0, 0.0, 0.0, 1.2184696791468346e-07]",-0.1569064,0.02941995,9.77723005,"[8.999999999999999e-08, 0.0, 0.0, 0.0, 8.999999999999999e-08, 0.0, 0.0, 0.0, 8.999999999999999e-08]",1
1.57E+18,116,1574069802,513412503,base_link,-0.006066747,-0.008827632,-0.234577059,-0.972038513,"[1.0, 0.0, 0.0, 0.0, 1.0, 0.0, 0.0, 0.0, 1.0]",0.005600358,0.025201121,-0.000601648,"[1.2184696791468346e-07, 0.0, 0.0, 0.0, 1.2184696791468346e-07, 0.0, 0.0, 0.0, 1.2184696791468346e-07]",-0.1176798,0.0980665,9.7870367,"[8.999999999999999e-08, 0.0, 0.0, 0.0, 8.999999999999999e-08, 0.0, 0.0, 0.0, 8.999999999999999e-08]",1
1.57E+18,117,1574069802,796236147,base_link,-0.006099459,-0.007820765,-0.234535702,-0.97205691,"[1.0, 0.0, 0.0, 0.0, 1.0, 0.0, 0.0, 0.0, 1.0]",0.000122181,-0.01645148,0.008963356,"[1.2184696791468346e-07, 0.0, 0.0, 0.0, 1.2184696791468346e-07, 0.0, 0.0, 0.0, 1.2184696791468346e-07]",-0.3138128,0.08825985,9.77723005,"[8.999999999999999e-08, 0.0, 0.0, 0.0, 8.999999999999999e-08, 0.0, 0.0, 0.0, 8.999999999999999e-08]",1
1.57E+18,118,1574069803,110191419,base_link,-0.005916974,-0.007903943,-0.235076152,-0.971926808,"[1.0, 0.0, 0.0, 0.0, 1.0, 0.0, 0.0, 0.0, 1.0]",-0.001153076,-0.013864452,0.015992543,"[1.2184696791468346e-07, 0.0, 0.0, 0.0, 1.2184696791468346e-07, 0.0, 0.0, 0.0, 1.2184696791468346e-07]",-0.3138128,0.0784532,9.7870367,"[8.999999999999999e-08, 0.0, 0.0, 0.0, 8.999999999999999e-08, 0.0, 0.0, 0.0, 8.999999999999999e-08]",1
1.57E+18,119,1574069803,398358124,base_link,-0.005503139,-0.008068697,-0.235202171,-0.971897397,"[1.0, 0.0, 0.0, 0.0, 1.0, 0.0, 0.0, 0.0, 1.0]",0.000275691,0.009503243,-0.014038712,"[1.2184696791468346e-07, 0.0, 0.0, 0.0, 1.2184696791468346e-07, 0.0, 0.0, 0.0, 1.2184696791468346e-07]",-0.0980665,0.06864655,9.80665,"[8.999999999999999e-08, 0.0, 0.0, 0.0, 8.999999999999999e-08, 0.0, 0.0, 0.0, 8.999999999999999e-08]",1
1.57E+18,120,1574069803,652896995,base_link,-0.005807091,-0.006696509,-0.235010319,-0.97195246,"[1.0, 0.0, 0.0, 0.0, 1.0, 0.0, 0.0, 0.0, 1.0]",0.002008202,-0.013577626,0.020460332,"[1.2184696791468346e-07, 0.0, 0.0, 0.0, 1.2184696791468346e-07, 0.0, 0.0, 0.0, 1.2184696791468346e-07]",-0.1765197,0.0980665,9.7674234,"[8.999999999999999e-08, 0.0, 0.0, 0.0, 8.999999999999999e-08, 0.0, 0.0, 0.0, 8.999999999999999e-08]",1
1.57E+18,121,1574069803,935470045,base_link,-0.005774361,-0.007555268,-0.235082262,-0.971928961,"[1.0, 0.0, 0.0, 0.0, 1.0, 0.0, 0.0, 0.0, 1.0]",0.006150794,0.001372151,0.013907253,"[1.2184696791468346e-07, 0.0, 0.0, 0.0, 1.2184696791468346e-07, 0.0, 0.0, 0.0, 1.2184696791468346e-07]",-0.0980665,0.08825985,9.80665,"[8.999999999999999e-08, 0.0, 0.0, 0.0, 8.999999999999999e-08, 0.0, 0.0, 0.0, 8.999999999999999e-08]",1
1.57E+18,122,1574069804,234835746,base_link,-0.005896437,-0.008911692,-0.235730081,-0.971759817,"[1.0, 0.0, 0.0, 0.0, 1.0, 0.0, 0.0, 0.0, 1.0]",0.00512328,0.024107993,0.016562922,"[1.2184696791468346e-07, 0.0, 0.0, 0.0, 1.2184696791468346e-07, 0.0, 0.0, 0.0, 1.2184696791468346e-07]",-0.3334261,0.1372931,9.75761675,"[8.999999999999999e-08, 0.0, 0.0, 0.0, 8.999999999999999e-08, 0.0, 0.0, 0.0, 8.999999999999999e-08]",1
1.57E+18,123,1574069804,555268489,base_link,-0.00612456,-0.008606551,-0.235574901,-0.971798787,"[1.0, 0.0, 0.0, 0.0, 1.0, 0.0, 0.0, 0.0, 1.0]",-0.002800127,0.002512046,0.000103667,"[1.2184696791468346e-07, 0.0, 0.0, 0.0, 1.2184696791468346e-07, 0.0, 0.0, 0.0, 1.2184696791468346e-07]",-0.1372931,0.1176798,9.7870367,"[8.999999999999999e-08, 0.0, 0.0, 0.0, 8.999999999999999e-08, 0.0, 0.0, 0.0, 8.999999999999999e-08]",1
1.57E+18,124,1574069804,832479528,base_link,-0.006731755,-0.008015015,-0.236667482,-0.971534326,"[1.0, 0.0, 0.0, 0.0, 1.0, 0.0, 0.0, 0.0, 1.0]",-0.004087154,-0.026823891,0.0031263,"[1.2184696791468346e-07, 0.0, 0.0, 0.0, 1.2184696791468346e-07, 0.0, 0.0, 0.0, 1.2184696791468346e-07]",-0.32361945,0.0392266,9.7870367,"[8.999999999999999e-08, 0.0, 0.0, 0.0, 8.999999999999999e-08, 0.0, 0.0, 0.0, 8.999999999999999e-08]",1
1.57E+18,125,1574069805,92087528,base_link,-0.006617851,-0.00899101,-0.23638752,-0.971594723,"[1.0, 0.0, 0.0, 0.0, 1.0, 0.0, 0.0, 0.0, 1.0]",0.012445122,0.015684541,0.002177168,"[1.2184696791468346e-07, 0.0, 0.0, 0.0, 1.2184696791468346e-07, 0.0, 0.0, 0.0, 1.2184696791468346e-07]",-0.22555295,0.10787315,9.83606995,"[8.999999999999999e-08, 0.0, 0.0, 0.0, 8.999999999999999e-08, 0.0, 0.0, 0.0, 8.999999999999999e-08]",1
1.57E+18,126,1574069805,384725130,base_link,-0.007103239,-0.008902928,-0.236709774,-0.971513646,"[1.0, 0.0, 0.0, 0.0, 1.0, 0.0, 0.0, 0.0, 1.0]",0.003776566,0.010617198,-0.001480003,"[1.2184696791468346e-07, 0.0, 0.0, 0.0, 1.2184696791468346e-07, 0.0, 0.0, 0.0, 1.2184696791468346e-07]",-0.34323275,0.12748645,9.77723005,"[8.999999999999999e-08, 0.0, 0.0, 0.0, 8.999999999999999e-08, 0.0, 0.0, 0.0, 8.999999999999999e-08]",1
1.57E+18,127,1574069805,679842920,base_link,-0.006712253,-0.007434416,-0.236773044,-0.971513356,"[1.0, 0.0, 0.0, 0.0, 1.0, 0.0, 0.0, 0.0, 1.0]",-0.014750887,-0.052998193,0.043203387,"[1.2184696791468346e-07, 0.0, 0.0, 0.0, 1.2184696791468346e-07, 0.0, 0.0, 0.0, 1.2184696791468346e-07]",-0.26477955,0.1372931,9.7870367,"[8.999999999999999e-08, 0.0, 0.0, 0.0, 8.999999999999999e-08, 0.0, 0.0, 0.0, 8.999999999999999e-08]",1
1.57E+18,128,1574069805,995582960,base_link,-0.000415564,-0.02256838,-0.228243199,-0.973342457,"[1.0, 0.0, 0.0, 0.0, 1.0, 0.0, 0.0, 0.0, 1.0]",0.144301832,-0.004897504,-0.095822491,"[1.2184696791468346e-07, 0.0, 0.0, 0.0, 1.2184696791468346e-07, 0.0, 0.0, 0.0, 1.2184696791468346e-07]",-0.4707192,-0.30400615,9.85568325,"[8.999999999999999e-08, 0.0, 0.0, 0.0, 8.999999999999999e-08, 0.0, 0.0, 0.0, 8.999999999999999e-08]",1
1.57E+18,129,1574069806,307628348,base_link,-0.008675454,-0.000239199,-0.216686283,-0.976202711,"[1.0, 0.0, 0.0, 0.0, 1.0, 0.0, 0.0, 0.0, 1.0]",-0.083145112,0.092100598,0.034099005,"[1.2184696791468346e-07, 0.0, 0.0, 0.0, 1.2184696791468346e-07, 0.0, 0.0, 0.0, 1.2184696791468346e-07]",0.06864655,-0.02941995,9.7870367,"[8.999999999999999e-08, 0.0, 0.0, 0.0, 8.999999999999999e-08, 0.0, 0.0, 0.0, 8.999999999999999e-08]",1
1.57E+18,130,1574069806,591834183,base_link,-0.002335028,-0.000506116,-0.216192742,-0.976347781,"[1.0, 0.0, 0.0, 0.0, 1.0, 0.0, 0.0, 0.0, 1.0]",-0.004673751,-0.052840017,-0.019660058,"[1.2184696791468346e-07, 0.0, 0.0, 0.0, 1.2184696791468346e-07, 0.0, 0.0, 0.0, 1.2184696791468346e-07]",0.02941995,0.00980665,10.2773692,"[8.999999999999999e-08, 0.0, 0.0, 0.0, 8.999999999999999e-08, 0.0, 0.0, 0.0, 8.999999999999999e-08]",1
1.57E+18,131,1574069806,872079809,base_link,-0.00195619,-0.003135687,-0.21628156,-0.976324038,"[1.0, 0.0, 0.0, 0.0, 1.0, 0.0, 0.0, 0.0, 1.0]",-0.02079667,-0.042568188,-0.013008358,"[1.2184696791468346e-07, 0.0, 0.0, 0.0, 1.2184696791468346e-07, 0.0, 0.0, 0.0, 1.2184696791468346e-07]",0.0784532,-0.06864655,9.7478101,"[8.999999999999999e-08, 0.0, 0.0, 0.0, 8.999999999999999e-08, 0.0, 0.0, 0.0, 8.999999999999999e-08]",1
1.57E+18,132,1574069807,177527957,base_link,-0.004333114,-0.003791232,-0.213430079,-0.976941376,"[1.0, 0.0, 0.0, 0.0, 1.0, 0.0, 0.0, 0.0, 1.0]",-0.010551027,0.130515277,-0.030127518,"[1.2184696791468346e-07, 0.0, 0.0, 0.0, 1.2184696791468346e-07, 0.0, 0.0, 0.0, 1.2184696791468346e-07]",-0.2549729,0.06864655,10.22833595,"[8.999999999999999e-08, 0.0, 0.0, 0.0, 8.999999999999999e-08, 0.0, 0.0, 0.0, 8.999999999999999e-08]",1
1.57E+18,133,1574069807,522402741,base_link,0.00249119,-0.002684333,-0.217615968,-0.976027602,"[1.0, 0.0, 0.0, 0.0, 1.0, 0.0, 0.0, 0.0, 1.0]",-0.045021862,-0.017788125,0.049888849,"[1.2184696791468346e-07, 0.0, 0.0, 0.0, 1.2184696791468346e-07, 0.0, 0.0, 0.0, 1.2184696791468346e-07]",-0.0196133,0.04903325,9.7674234,"[8.999999999999999e-08, 0.0, 0.0, 0.0, 8.999999999999999e-08, 0.0, 0.0, 0.0, 8.999999999999999e-08]",1
1.57E+18,134,1574069807,812763730,base_link,0.000795175,0.002047361,-0.216810602,-0.976211216,"[1.0, 0.0, 0.0, 0.0, 1.0, 0.0, 0.0, 0.0, 1.0]",-0.003291602,-0.028565923,-0.016814593,"[1.2184696791468346e-07, 0.0, 0.0, 0.0, 1.2184696791468346e-07, 0.0, 0.0, 0.0, 1.2184696791468346e-07]",-0.1372931,-0.0980665,9.7085835,"[8.999999999999999e-08, 0.0, 0.0, 0.0, 8.999999999999999e-08, 0.0, 0.0, 0.0, 8.999999999999999e-08]",1
1.57E+18,135,1574069808,152085334,base_link,7.11E-06,0.007675994,-0.212299931,-0.977174405,"[1.0, 0.0, 0.0, 0.0, 1.0, 0.0, 0.0, 0.0, 1.0]",-0.04234986,-0.126100823,-0.110028736,"[1.2184696791468346e-07, 0.0, 0.0, 0.0, 1.2184696791468346e-07, 0.0, 0.0, 0.0, 1.2184696791468346e-07]",0.08825985,-0.12748645,9.52225715,"[8.999999999999999e-08, 0.0, 0.0, 0.0, 8.999999999999999e-08, 0.0, 0.0, 0.0, 8.999999999999999e-08]",1
1.57E+18,136,1574069808,387921787,base_link,-0.002984682,0.013864889,-0.190941299,-0.981498995,"[1.0, 0.0, 0.0, 0.0, 1.0, 0.0, 0.0, 0.0, 1.0]",-0.002571203,0.0527343,-0.276937634,"[1.2184696791468346e-07, 0.0, 0.0, 0.0, 1.2184696791468346e-07, 0.0, 0.0, 0.0, 1.2184696791468346e-07]",0.1765197,-0.0392266,9.4536106,"[8.999999999999999e-08, 0.0, 0.0, 0.0, 8.999999999999999e-08, 0.0, 0.0, 0.0, 8.999999999999999e-08]",1
1.57E+18,137,1574069808,692704672,base_link,-0.004636722,0.011258324,-0.153434961,-0.988083733,"[1.0, 0.0, 0.0, 0.0, 1.0, 0.0, 0.0, 0.0, 1.0]",-0.008547737,-0.025929863,-0.101982497,"[1.2184696791468346e-07, 0.0, 0.0, 0.0, 1.2184696791468346e-07, 0.0, 0.0, 0.0, 1.2184696791468346e-07]",0.1569064,-0.12748645,9.71839015,"[8.999999999999999e-08, 0.0, 0.0, 0.0, 8.999999999999999e-08, 0.0, 0.0, 0.0, 8.999999999999999e-08]",1
1.57E+18,138,1574069808,971936339,base_link,-0.006633987,0.012187942,-0.149507139,-0.988663269,"[1.0, 0.0, 0.0, 0.0, 1.0, 0.0, 0.0, 0.0, 1.0]",0.039790213,-0.020209767,0.029148212,"[1.2184696791468346e-07, 0.0, 0.0, 0.0, 1.2184696791468346e-07, 0.0, 0.0, 0.0, 1.2184696791468346e-07]",0.3334261,-0.04903325,9.93413645,"[8.999999999999999e-08, 0.0, 0.0, 0.0, 8.999999999999999e-08, 0.0, 0.0, 0.0, 8.999999999999999e-08]",1
1.57E+18,139,1574069809,351885420,base_link,-0.006841769,0.025849412,-0.170589706,-0.984979264,"[1.0, 0.0, 0.0, 0.0, 1.0, 0.0, 0.0, 0.0, 1.0]",0.002592116,-0.103670374,0.100601465,"[1.2184696791468346e-07, 0.0, 0.0, 0.0, 1.2184696791468346e-07, 0.0, 0.0, 0.0, 1.2184696791468346e-07]",0.38245935,-0.2157463,9.6497436,"[8.999999999999999e-08, 0.0, 0.0, 0.0, 8.999999999999999e-08, 0.0, 0.0, 0.0, 8.999999999999999e-08]",1
1.57E+18,140,1574069809,646662384,base_link,-0.010056926,0.031082987,-0.180569228,-0.983019562,"[1.0, 0.0, 0.0, 0.0, 1.0, 0.0, 0.0, 0.0, 1.0]",0.001985558,-0.052712902,-0.005336453,"[1.2184696791468346e-07, 0.0, 0.0, 0.0, 1.2184696791468346e-07, 0.0, 0.0, 0.0, 1.2184696791468346e-07]",0.44129925,0.24516625,9.8262633,"[8.999999999999999e-08, 0.0, 0.0, 0.0, 8.999999999999999e-08, 0.0, 0.0, 0.0, 8.999999999999999e-08]",1
1.57E+18,141,1574069809,866230518,base_link,-0.014634187,0.031743577,-0.175316134,-0.983891477,"[1.0, 0.0, 0.0, 0.0, 1.0, 0.0, 0.0, 0.0, 1.0]",0.005428805,0.055718906,-0.082990564,"[1.2184696791468346e-07, 0.0, 0.0, 0.0, 1.2184696791468346e-07, 0.0, 0.0, 0.0, 1.2184696791468346e-07]",0.63743225,0.12748645,9.67916355,"[8.999999999999999e-08, 0.0, 0.0, 0.0, 8.999999999999999e-08, 0.0, 0.0, 0.0, 8.999999999999999e-08]",1
1.57E+18,142,1574069810,136858900,base_link,-0.014531546,0.036886666,-0.174914669,-0.983785071,"[1.0, 0.0, 0.0, 0.0, 1.0, 0.0, 0.0, 0.0, 1.0]",-0.045815531,-0.038431168,-0.037161276,"[1.2184696791468346e-07, 0.0, 0.0, 0.0, 1.2184696791468346e-07, 0.0, 0.0, 0.0, 1.2184696791468346e-07]",0.48052585,0.06864655,9.6889702,"[8.999999999999999e-08, 0.0, 0.0, 0.0, 8.999999999999999e-08, 0.0, 0.0, 0.0, 8.999999999999999e-08]",1
1.57E+18,143,1574069810,411823015,base_link,-0.014220743,0.038566326,-0.159592258,-0.986326883,"[1.0, 0.0, 0.0, 0.0, 1.0, 0.0, 0.0, 0.0, 1.0]",0.055315286,-0.046952449,-0.02244712,"[1.2184696791468346e-07, 0.0, 0.0, 0.0, 1.2184696791468346e-07, 0.0, 0.0, 0.0, 1.2184696791468346e-07]",0.71588545,-0.1569064,9.62032365,"[8.999999999999999e-08, 0.0, 0.0, 0.0, 8.999999999999999e-08, 0.0, 0.0, 0.0, 8.999999999999999e-08]",1
1.57E+18,144,1574069810,692164490,base_link,-0.013898692,0.03635274,-0.160011607,-0.986347601,"[1.0, 0.0, 0.0, 0.0, 1.0, 0.0, 0.0, 0.0, 1.0]",0.016286563,0.033091251,0.072562084,"[1.2184696791468346e-07, 0.0, 0.0, 0.0, 1.2184696791468346e-07, 0.0, 0.0, 0.0, 1.2184696791468346e-07]",0.8825985,0.14709975,9.9047165,"[8.999999999999999e-08, 0.0, 0.0, 0.0, 8.999999999999999e-08, 0.0, 0.0, 0.0, 8.999999999999999e-08]",1
1.57E+18,145,1574069811,2129737,base_link,-0.014256233,0.042597963,-0.173919241,-0.983734858,"[1.0, 0.0, 0.0, 0.0, 1.0, 0.0, 0.0, 0.0, 1.0]",-0.024310444,0.018355634,0.135949999,"[1.2184696791468346e-07, 0.0, 0.0, 0.0, 1.2184696791468346e-07, 0.0, 0.0, 0.0, 1.2184696791468346e-07]",0.9414384,0.04903325,9.83606995,"[8.999999999999999e-08, 0.0, 0.0, 0.0, 8.999999999999999e-08, 0.0, 0.0, 0.0, 8.999999999999999e-08]",1
1.57E+18,146,1574069811,272787518,base_link,-0.01266686,0.034604587,-0.190720482,-0.980952482,"[1.0, 0.0, 0.0, 0.0, 1.0, 0.0, 0.0, 0.0, 1.0]",0.027272498,0.03651914,0.051862862,"[1.2184696791468346e-07, 0.0, 0.0, 0.0, 1.2184696791468346e-07, 0.0, 0.0, 0.0, 1.2184696791468346e-07]",0.6472389,0.04903325,9.8851032,"[8.999999999999999e-08, 0.0, 0.0, 0.0, 8.999999999999999e-08, 0.0, 0.0, 0.0, 8.999999999999999e-08]",1
1.57E+18,147,1574069811,529317367,base_link,-0.014981101,0.025145807,-0.195751428,-0.980216626,"[1.0, 0.0, 0.0, 0.0, 1.0, 0.0, 0.0, 0.0, 1.0]",0.069747627,0.050803091,0.0462461,"[1.2184696791468346e-07, 0.0, 0.0, 0.0, 1.2184696791468346e-07, 0.0, 0.0, 0.0, 1.2184696791468346e-07]",0.50013915,-0.0392266,9.7281968,"[8.999999999999999e-08, 0.0, 0.0, 0.0, 8.999999999999999e-08, 0.0, 0.0, 0.0, 8.999999999999999e-08]",1
1.57E+18,148,1574069811,818121131,base_link,-0.013131671,0.017797969,-0.193617994,-0.980827642,"[1.0, 0.0, 0.0, 0.0, 1.0, 0.0, 0.0, 0.0, 1.0]",-0.039365545,0.082159564,-0.034657892,"[1.2184696791468346e-07, 0.0, 0.0, 0.0, 1.2184696791468346e-07, 0.0, 0.0, 0.0, 1.2184696791468346e-07]",0.57859235,0.2157463,10.002783,"[8.999999999999999e-08, 0.0, 0.0, 0.0, 8.999999999999999e-08, 0.0, 0.0, 0.0, 8.999999999999999e-08]",1
1.57E+18,149,1574069812,135393688,base_link,-0.008127534,0.002655402,-0.195413588,-0.98068365,"[1.0, 0.0, 0.0, 0.0, 1.0, 0.0, 0.0, 0.0, 1.0]",0.010340693,0.144869581,0.020294663,"[1.2184696791468346e-07, 0.0, 0.0, 0.0, 1.2184696791468346e-07, 0.0, 0.0, 0.0, 1.2184696791468346e-07]",0.28439285,0.0196133,9.91452315,"[8.999999999999999e-08, 0.0, 0.0, 0.0, 8.999999999999999e-08, 0.0, 0.0, 0.0, 8.999999999999999e-08]",1
1.57E+18,150,1574069812,472102650,base_link,-0.003007781,-0.014804585,-0.199403377,-0.979801036,"[1.0, 0.0, 0.0, 0.0, 1.0, 0.0, 0.0, 0.0, 1.0]",-0.0758406,0.059168685,0.026897147,"[1.2184696791468346e-07, 0.0, 0.0, 0.0, 1.2184696791468346e-07, 0.0, 0.0, 0.0, 1.2184696791468346e-07]",-0.196133,0.1765197,9.89490985,"[8.999999999999999e-08, 0.0, 0.0, 0.0, 8.999999999999999e-08, 0.0, 0.0, 0.0, 8.999999999999999e-08]",1
1.57E+18,151,1574069812,769760338,base_link,0.002050097,-0.011277202,-0.205084214,-0.978677213,"[1.0, 0.0, 0.0, 0.0, 1.0, 0.0, 0.0, 0.0, 1.0]",0.021449892,-0.068527691,0.047034197,"[1.2184696791468346e-07, 0.0, 0.0, 0.0, 1.2184696791468346e-07, 0.0, 0.0, 0.0, 1.2184696791468346e-07]",-0.26477955,-0.08825985,9.56148375,"[8.999999999999999e-08, 0.0, 0.0, 0.0, 8.999999999999999e-08, 0.0, 0.0, 0.0, 8.999999999999999e-08]",1
1.57E+18,152,1574069813,47649868,base_link,0.003487763,-0.012408434,-0.20431967,-0.97881936,"[1.0, 0.0, 0.0, 0.0, 1.0, 0.0, 0.0, 0.0, 1.0]",-0.01959791,0.107356414,-0.022937307,"[1.2184696791468346e-07, 0.0, 0.0, 0.0, 1.2184696791468346e-07, 0.0, 0.0, 0.0, 1.2184696791468346e-07]",-0.36284605,-0.0392266,9.85568325,"[8.999999999999999e-08, 0.0, 0.0, 0.0, 8.999999999999999e-08, 0.0, 0.0, 0.0, 8.999999999999999e-08]",1
1.57E+18,153,1574069813,352977805,base_link,0.020365012,-0.022412011,-0.196632049,-0.980009595,"[1.0, 0.0, 0.0, 0.0, 1.0, 0.0, 0.0, 0.0, 1.0]",-0.129365385,-0.037085835,0.02351336,"[1.2184696791468346e-07, 0.0, 0.0, 0.0, 1.2184696791468346e-07, 0.0, 0.0, 0.0, 1.2184696791468346e-07]",-0.32361945,-0.1569064,9.97336305,"[8.999999999999999e-08, 0.0, 0.0, 0.0, 8.999999999999999e-08, 0.0, 0.0, 0.0, 8.999999999999999e-08]",1
1.57E+18,154,1574069813,640010616,base_link,0.016067582,0.002922894,-0.206373818,-0.978336924,"[1.0, 0.0, 0.0, 0.0, 1.0, 0.0, 0.0, 0.0, 1.0]",-0.003177878,-0.07985384,-0.020317277,"[1.2184696791468346e-07, 0.0, 0.0, 0.0, 1.2184696791468346e-07, 0.0, 0.0, 0.0, 1.2184696791468346e-07]",0.30400615,-0.38245935,9.4928372,"[8.999999999999999e-08, 0.0, 0.0, 0.0, 8.999999999999999e-08, 0.0, 0.0, 0.0, 8.999999999999999e-08]",1
1.57E+18,155,1574069813,967282188,base_link,0.029425458,0.007602217,-0.197891757,-0.979752622,"[1.0, 0.0, 0.0, 0.0, 1.0, 0.0, 0.0, 0.0, 1.0]",0.050897524,-0.025542138,-0.123468481,"[1.2184696791468346e-07, 0.0, 0.0, 0.0, 1.2184696791468346e-07, 0.0, 0.0, 0.0, 1.2184696791468346e-07]",-0.0784532,-0.65704555,9.4536106,"[8.999999999999999e-08, 0.0, 0.0, 0.0, 8.999999999999999e-08, 0.0, 0.0, 0.0, 8.999999999999999e-08]",1
1.57E+18,156,1574069814,272391642,base_link,0.033362794,-0.016812264,-0.183327229,-0.982341793,"[1.0, 0.0, 0.0, 0.0, 1.0, 0.0, 0.0, 0.0, 1.0]",-0.026998525,0.087909169,-0.051878512,"[1.2184696791468346e-07, 0.0, 0.0, 0.0, 1.2184696791468346e-07, 0.0, 0.0, 0.0, 1.2184696791468346e-07]",-0.3726527,-0.57859235,10.2773692,"[8.999999999999999e-08, 0.0, 0.0, 0.0, 8.999999999999999e-08, 0.0, 0.0, 0.0, 8.999999999999999e-08]",1
1.57E+18,157,1574069814,552303163,base_link,0.020084968,-0.017122728,-0.176941699,-0.98386739,"[1.0, 0.0, 0.0, 0.0, 1.0, 0.0, 0.0, 0.0, 1.0]",0.136506796,-0.027940782,0.072667576,"[1.2184696791468346e-07, 0.0, 0.0, 0.0, 1.2184696791468346e-07, 0.0, 0.0, 0.0, 1.2184696791468346e-07]",-0.71588545,-0.61781895,9.56148375,"[8.999999999999999e-08, 0.0, 0.0, 0.0, 8.999999999999999e-08, 0.0, 0.0, 0.0, 8.999999999999999e-08]",1
1.57E+18,158,1574069814,867133376,base_link,0.001622058,-0.048872407,-0.170677755,-0.984112778,"[1.0, 0.0, 0.0, 0.0, 1.0, 0.0, 0.0, 0.0, 1.0]",0.031769879,0.135192677,-0.37504971,"[1.2184696791468346e-07, 0.0, 0.0, 0.0, 1.2184696791468346e-07, 0.0, 0.0, 0.0, 1.2184696791468346e-07]",-0.42168595,0.55897905,9.5909037,"[8.999999999999999e-08, 0.0, 0.0, 0.0, 8.999999999999999e-08, 0.0, 0.0, 0.0, 8.999999999999999e-08]",1
1.57E+18,159,1574069815,130381533,base_link,0.013962113,-0.035643185,-0.15213997,-0.987617361,"[1.0, 0.0, 0.0, 0.0, 1.0, 0.0, 0.0, 0.0, 1.0]",0.039024424,-0.057882659,0.320562333,"[1.2184696791468346e-07, 0.0, 0.0, 0.0, 1.2184696791468346e-07, 0.0, 0.0, 0.0, 1.2184696791468346e-07]",-1.20621795,-0.81395195,10.2185293,"[8.999999999999999e-08, 0.0, 0.0, 0.0, 8.999999999999999e-08, 0.0, 0.0, 0.0, 8.999999999999999e-08]",1
1.57E+18,160,1574069815,390145780,base_link,0.009705958,-0.033643894,-0.174472017,-0.984039328,"[1.0, 0.0, 0.0, 0.0, 1.0, 0.0, 0.0, 0.0, 1.0]",-0.069027558,-0.062725931,0.008326098,"[1.2184696791468346e-07, 0.0, 0.0, 0.0, 1.2184696791468346e-07, 0.0, 0.0, 0.0, 1.2184696791468346e-07]",-0.83356525,0.02941995,9.7478101,"[8.999999999999999e-08, 0.0, 0.0, 0.0, 8.999999999999999e-08, 0.0, 0.0, 0.0, 8.999999999999999e-08]",1
1.57E+18,161,1574069815,654846534,base_link,0.014212863,-0.00292439,-0.17312283,-0.984793343,"[1.0, 0.0, 0.0, 0.0, 1.0, 0.0, 0.0, 0.0, 1.0]",-0.049812499,-0.080700882,0.008499939,"[1.2184696791468346e-07, 0.0, 0.0, 0.0, 1.2184696791468346e-07, 0.0, 0.0, 0.0, 1.2184696791468346e-07]",-0.51975245,-0.2157463,9.56148375,"[8.999999999999999e-08, 0.0, 0.0, 0.0, 8.999999999999999e-08, 0.0, 0.0, 0.0, 8.999999999999999e-08]",1
1.57E+18,162,1574069815,908507893,base_link,0.018026748,-0.004500181,-0.174861705,-0.98441768,"[1.0, 0.0, 0.0, 0.0, 1.0, 0.0, 0.0, 0.0, 1.0]",-0.053214364,-0.108427666,0.059796806,"[1.2184696791468346e-07, 0.0, 0.0, 0.0, 1.2184696791468346e-07, 0.0, 0.0, 0.0, 1.2184696791468346e-07]",-0.3138128,-0.5099458,9.5320638,"[8.999999999999999e-08, 0.0, 0.0, 0.0, 8.999999999999999e-08, 0.0, 0.0, 0.0, 8.999999999999999e-08]",1
1.57E+18,163,1574069816,205006210,base_link,0.021185965,-0.007762432,-0.182896823,-0.982873162,"[1.0, 0.0, 0.0, 0.0, 1.0, 0.0, 0.0, 0.0, 1.0]",-0.113063648,0.158377826,0.058209341,"[1.2184696791468346e-07, 0.0, 0.0, 0.0, 1.2184696791468346e-07, 0.0, 0.0, 0.0, 1.2184696791468346e-07]",-0.02941995,-0.67665885,9.75761675,"[8.999999999999999e-08, 0.0, 0.0, 0.0, 8.999999999999999e-08, 0.0, 0.0, 0.0, 8.999999999999999e-08]",1
1.57E+18,164,1574069816,451062915,base_link,0.035173988,-0.026816496,-0.194810319,-0.979843154,"[1.0, 0.0, 0.0, 0.0, 1.0, 0.0, 0.0, 0.0, 1.0]",0.006513924,0.023930077,0.08448194,"[1.2184696791468346e-07, 0.0, 0.0, 0.0, 1.2184696791468346e-07, 0.0, 0.0, 0.0, 1.2184696791468346e-07]",-0.1569064,-0.7649187,9.3555441,"[8.999999999999999e-08, 0.0, 0.0, 0.0, 8.999999999999999e-08, 0.0, 0.0, 0.0, 8.999999999999999e-08]",1
1.57E+18,165,1574069816,715696841,base_link,0.033283495,-0.032254605,-0.203139258,-0.978052295,"[1.0, 0.0, 0.0, 0.0, 1.0, 0.0, 0.0, 0.0, 1.0]",-0.008197556,0.006145655,0.035469256,"[1.2184696791468346e-07, 0.0, 0.0, 0.0, 1.2184696791468346e-07, 0.0, 0.0, 0.0, 1.2184696791468346e-07]",-0.69627215,-0.6276256,9.9831697,"[8.999999999999999e-08, 0.0, 0.0, 0.0, 8.999999999999999e-08, 0.0, 0.0, 0.0, 8.999999999999999e-08]",1
1.57E+18,166,1574069816,999368164,base_link,0.03174723,-0.013445094,-0.192950389,-0.980602616,"[1.0, 0.0, 0.0, 0.0, 1.0, 0.0, 0.0, 0.0, 1.0]",-0.043157056,-0.029839251,-0.110955797,"[1.2184696791468346e-07, 0.0, 0.0, 0.0, 1.2184696791468346e-07, 0.0, 0.0, 0.0, 1.2184696791468346e-07]",-0.392266,-0.55897905,9.6693569,"[8.999999999999999e-08, 0.0, 0.0, 0.0, 8.999999999999999e-08, 0.0, 0.0, 0.0, 8.999999999999999e-08]",1
1.57E+18,167,1574069817,242959456,base_link,0.031225668,-0.003440218,-0.18294495,-0.982621121,"[1.0, 0.0, 0.0, 0.0, 1.0, 0.0, 0.0, 0.0, 1.0]",0.027901446,-0.176158816,-0.135643542,"[1.2184696791468346e-07, 0.0, 0.0, 0.0, 1.2184696791468346e-07, 0.0, 0.0, 0.0, 1.2184696791468346e-07]",-0.16671305,-0.8433719,9.87529655,"[8.999999999999999e-08, 0.0, 0.0, 0.0, 8.999999999999999e-08, 0.0, 0.0, 0.0, 8.999999999999999e-08]",1
1.57E+18,168,1574069817,490189731,base_link,0.030950935,-0.003213092,-0.170350021,-0.98489217,"[1.0, 0.0, 0.0, 0.0, 1.0, 0.0, 0.0, 0.0, 1.0]",0.078837812,0.096479304,-0.053543221,"[1.2184696791468346e-07, 0.0, 0.0, 0.0, 1.2184696791468346e-07, 0.0, 0.0, 0.0, 1.2184696791468346e-07]",-0.18632635,-0.7256921,9.62032365,"[8.999999999999999e-08, 0.0, 0.0, 0.0, 8.999999999999999e-08, 0.0, 0.0, 0.0, 8.999999999999999e-08]",1
1.57E+18,169,1574069817,752327650,base_link,0.029636085,-0.007775968,-0.17104081,-0.984787428,"[1.0, 0.0, 0.0, 0.0, 1.0, 0.0, 0.0, 0.0, 1.0]",0.004311084,0.039527457,0.087973841,"[1.2184696791468346e-07, 0.0, 0.0, 0.0, 1.2184696791468346e-07, 0.0, 0.0, 0.0, 1.2184696791468346e-07]",-0.53936575,-1.1375714,9.67916355,"[8.999999999999999e-08, 0.0, 0.0, 0.0, 8.999999999999999e-08, 0.0, 0.0, 0.0, 8.999999999999999e-08]",1
1.57E+18,170,1574069818,8719118,base_link,0.029019735,-0.006059226,-0.181521848,-0.982939957,"[1.0, 0.0, 0.0, 0.0, 1.0, 0.0, 0.0, 0.0, 1.0]",-0.02868196,0.052231986,0.131791383,"[1.2184696791468346e-07, 0.0, 0.0, 0.0, 1.2184696791468346e-07, 0.0, 0.0, 0.0, 1.2184696791468346e-07]",-0.04903325,-1.0787315,9.9047165,"[8.999999999999999e-08, 0.0, 0.0, 0.0, 8.999999999999999e-08, 0.0, 0.0, 0.0, 8.999999999999999e-08]",1
1.57E+18,171,1574069818,292817149,base_link,0.035307559,-0.017694829,-0.189312819,-0.981122279,"[1.0, 0.0, 0.0, 0.0, 1.0, 0.0, 0.0, 0.0, 1.0]",0.021627497,0.009503774,0.020987783,"[1.2184696791468346e-07, 0.0, 0.0, 0.0, 1.2184696791468346e-07, 0.0, 0.0, 0.0, 1.2184696791468346e-07]",-0.5491724,-0.3334261,9.91452315,"[8.999999999999999e-08, 0.0, 0.0, 0.0, 8.999999999999999e-08, 0.0, 0.0, 0.0, 8.999999999999999e-08]",1
1.57E+18,172,1574069818,567026419,base_link,0.036091938,-0.020477076,-0.198101015,-0.979302838,"[1.0, 0.0, 0.0, 0.0, 1.0, 0.0, 0.0, 0.0, 1.0]",-0.024194114,0.022759385,-0.029771714,"[1.2184696791468346e-07, 0.0, 0.0, 0.0, 1.2184696791468346e-07, 0.0, 0.0, 0.0, 1.2184696791468346e-07]",-0.59820565,-0.20593965,10.3362091,"[8.999999999999999e-08, 0.0, 0.0, 0.0, 8.999999999999999e-08, 0.0, 0.0, 0.0, 8.999999999999999e-08]",1
1.57E+18,173,1574069818,835493642,base_link,0.029727061,-0.015286427,-0.192497202,-0.980728023,"[1.0, 0.0, 0.0, 0.0, 1.0, 0.0, 0.0, 0.0, 1.0]",0.069432646,0.021209065,0.043534029,"[1.2184696791468346e-07, 0.0, 0.0, 0.0, 1.2184696791468346e-07, 0.0, 0.0, 0.0, 1.2184696791468346e-07]",-1.04931155,-0.4118793,9.218251,"[8.999999999999999e-08, 0.0, 0.0, 0.0, 8.999999999999999e-08, 0.0, 0.0, 0.0, 8.999999999999999e-08]",1
1.57E+18,174,1574069819,132704408,base_link,0.017896628,-0.011553874,-0.19636364,-0.980299719,"[1.0, 0.0, 0.0, 0.0, 1.0, 0.0, 0.0, 0.0, 1.0]",0.034442849,-0.045724124,-0.020080166,"[1.2184696791468346e-07, 0.0, 0.0, 0.0, 1.2184696791468346e-07, 0.0, 0.0, 0.0, 1.2184696791468346e-07]",-0.73549875,-0.6080123,9.6889702,"[8.999999999999999e-08, 0.0, 0.0, 0.0, 8.999999999999999e-08, 0.0, 0.0, 0.0, 8.999999999999999e-08]",1
1.57E+18,175,1574069819,405788642,base_link,0.009544633,-0.021766967,-0.202420676,-0.979010199,"[1.0, 0.0, 0.0, 0.0, 1.0, 0.0, 0.0, 0.0, 1.0]",0.078182369,-0.008581293,0.106615022,"[1.2184696791468346e-07, 0.0, 0.0, 0.0, 1.2184696791468346e-07, 0.0, 0.0, 0.0, 1.2184696791468346e-07]",-0.51975245,-0.6472389,9.6301303,"[8.999999999999999e-08, 0.0, 0.0, 0.0, 8.999999999999999e-08, 0.0, 0.0, 0.0, 8.999999999999999e-08]",1
1.57E+18,176,1574069819,654777260,base_link,0.005450043,-0.02327786,-0.212777618,-0.97680813,"[1.0, 0.0, 0.0, 0.0, 1.0, 0.0, 0.0, 0.0, 1.0]",0.046173617,0.053316049,0.088994719,"[1.2184696791468346e-07, 0.0, 0.0, 0.0, 1.2184696791468346e-07, 0.0, 0.0, 0.0, 1.2184696791468346e-07]",-0.6276256,-0.7256921,9.6889702,"[8.999999999999999e-08, 0.0, 0.0, 0.0, 8.999999999999999e-08, 0.0, 0.0, 0.0, 8.999999999999999e-08]",1
1.57E+18,177,1574069819,918827866,base_link,0.007001209,-0.024157734,-0.225117332,-0.974006968,"[1.0, 0.0, 0.0, 0.0, 1.0, 0.0, 0.0, 0.0, 1.0]",-0.034115549,0.001611358,0.027303301,"[1.2184696791468346e-07, 0.0, 0.0, 0.0, 1.2184696791468346e-07, 0.0, 0.0, 0.0, 1.2184696791468346e-07]",-0.46091255,-0.4118793,10.16949605,"[8.999999999999999e-08, 0.0, 0.0, 0.0, 8.999999999999999e-08, 0.0, 0.0, 0.0, 8.999999999999999e-08]",1
1.57E+18,178,1574069820,168846392,base_link,0.018165934,-0.017891189,-0.234023072,-0.971896654,"[1.0, 0.0, 0.0, 0.0, 1.0, 0.0, 0.0, 0.0, 1.0]",-0.080359839,-0.016419483,0.114332683,"[1.2184696791468346e-07, 0.0, 0.0, 0.0, 1.2184696791468346e-07, 0.0, 0.0, 0.0, 1.2184696791468346e-07]",-0.55897905,1.19E-15,9.75761675,"[8.999999999999999e-08, 0.0, 0.0, 0.0, 8.999999999999999e-08, 0.0, 0.0, 0.0, 8.999999999999999e-08]",1
1.57E+18,179,1574069820,439786242,base_link,0.017906081,-0.023964358,-0.239532641,-0.970427326,"[1.0, 0.0, 0.0, 0.0, 1.0, 0.0, 0.0, 0.0, 1.0]",0.051323473,0.068686604,-0.020359654,"[1.2184696791468346e-07, 0.0, 0.0, 0.0, 1.2184696791468346e-07, 0.0, 0.0, 0.0, 1.2184696791468346e-07]",-0.32361945,0.34323275,9.5124505,"[8.999999999999999e-08, 0.0, 0.0, 0.0, 8.999999999999999e-08, 0.0, 0.0, 0.0, 8.999999999999999e-08]",1
1.57E+18,180,1574069820,706464990,base_link,0.004043752,-0.031159562,-0.239838045,-0.970304304,"[1.0, 0.0, 0.0, 0.0, 1.0, 0.0, 0.0, 0.0, 1.0]",0.135314763,-0.021660408,0.012676938,"[1.2184696791468346e-07, 0.0, 0.0, 0.0, 1.2184696791468346e-07, 0.0, 0.0, 0.0, 1.2184696791468346e-07]",-0.7649187,-0.22555295,9.9243298,"[8.999999999999999e-08, 0.0, 0.0, 0.0, 8.999999999999999e-08, 0.0, 0.0, 0.0, 8.999999999999999e-08]",1
1.57E+18,181,1574069820,972380998,base_link,-0.019531868,-0.029915963,-0.247989042,-0.968103804,"[1.0, 0.0, 0.0, 0.0, 1.0, 0.0, 0.0, 0.0, 1.0]",0.200929567,-0.02295397,0.069786631,"[1.2184696791468346e-07, 0.0, 0.0, 0.0, 1.2184696791468346e-07, 0.0, 0.0, 0.0, 1.2184696791468346e-07]",-0.67665885,0.0980665,9.71839015,"[8.999999999999999e-08, 0.0, 0.0, 0.0, 8.999999999999999e-08, 0.0, 0.0, 0.0, 8.999999999999999e-08]",1
1.57E+18,182,1574069821,232729391,base_link,-0.037958136,-0.02517249,-0.257269043,-0.965265852,"[1.0, 0.0, 0.0, 0.0, 1.0, 0.0, 0.0, 0.0, 1.0]",0.009571253,-0.054357938,-0.003541601,"[1.2184696791468346e-07, 0.0, 0.0, 0.0, 1.2184696791468346e-07, 0.0, 0.0, 0.0, 1.2184696791468346e-07]",-0.67665885,0.00980665,9.5712904,"[8.999999999999999e-08, 0.0, 0.0, 0.0, 8.999999999999999e-08, 0.0, 0.0, 0.0, 8.999999999999999e-08]",1
1.57E+18,183,1574069821,496028250,base_link,-0.050425306,-0.027601356,-0.254052004,-0.965480726,"[1.0, 0.0, 0.0, 0.0, 1.0, 0.0, 0.0, 0.0, 1.0]",0.137552679,-0.096157163,0.009949501,"[1.2184696791468346e-07, 0.0, 0.0, 0.0, 1.2184696791468346e-07, 0.0, 0.0, 0.0, 1.2184696791468346e-07]",-0.4903325,0.6472389,10.0420096,"[8.999999999999999e-08, 0.0, 0.0, 0.0, 8.999999999999999e-08, 0.0, 0.0, 0.0, 8.999999999999999e-08]",1
1.57E+18,184,1574069821,810708135,base_link,-0.05398497,-0.031814077,-0.24332165,-0.96791945,"[1.0, 0.0, 0.0, 0.0, 1.0, 0.0, 0.0, 0.0, 1.0]",-0.063892193,0.114023477,-0.163361758,"[1.2184696791468346e-07, 0.0, 0.0, 0.0, 1.2184696791468346e-07, 0.0, 0.0, 0.0, 1.2184696791468346e-07]",-0.1176798,1.61809725,9.7674234,"[8.999999999999999e-08, 0.0, 0.0, 0.0, 8.999999999999999e-08, 0.0, 0.0, 0.0, 8.999999999999999e-08]",1
1.57E+18,185,1574069822,99214207,base_link,-0.062846096,-0.030240295,-0.228046699,-0.971149111,"[1.0, 0.0, 0.0, 0.0, 1.0, 0.0, 0.0, 0.0, 1.0]",0.114678718,-0.06202846,0.025066638,"[1.2184696791468346e-07, 0.0, 0.0, 0.0, 1.2184696791468346e-07, 0.0, 0.0, 0.0, 1.2184696791468346e-07]",-0.7453054,1.0983448,9.56148375,"[8.999999999999999e-08, 0.0, 0.0, 0.0, 8.999999999999999e-08, 0.0, 0.0, 0.0, 8.999999999999999e-08]",1
1.57E+18,186,1574069822,374978297,base_link,-0.058077562,-0.035082112,-0.231766931,-0.97040215,"[1.0, 0.0, 0.0, 0.0, 1.0, 0.0, 0.0, 0.0, 1.0]",-0.124965727,0.041916747,0.068523891,"[1.2184696791468346e-07, 0.0, 0.0, 0.0, 1.2184696791468346e-07, 0.0, 0.0, 0.0, 1.2184696791468346e-07]",-0.4314926,1.2748645,9.79684335,"[8.999999999999999e-08, 0.0, 0.0, 0.0, 8.999999999999999e-08, 0.0, 0.0, 0.0, 8.999999999999999e-08]",1
1.57E+18,187,1574069822,610449368,base_link,-0.033843257,-0.026370047,-0.241148192,-0.96953948,"[1.0, 0.0, 0.0, 0.0, 1.0, 0.0, 0.0, 0.0, 1.0]",-0.349880189,-0.062342923,0.118120454,"[1.2184696791468346e-07, 0.0, 0.0, 0.0, 1.2184696791468346e-07, 0.0, 0.0, 0.0, 1.2184696791468346e-07]",-0.75511205,0.79433865,9.83606995,"[8.999999999999999e-08, 0.0, 0.0, 0.0, 8.999999999999999e-08, 0.0, 0.0, 0.0, 8.999999999999999e-08]",1
1.57E+18,188,1574069822,855394409,base_link,0.00200792,-0.021427093,-0.252457231,-0.967368696,"[1.0, 0.0, 0.0, 0.0, 1.0, 0.0, 0.0, 0.0, 1.0]",-0.251093656,-0.085544907,0.059131682,"[1.2184696791468346e-07, 0.0, 0.0, 0.0, 1.2184696791468346e-07, 0.0, 0.0, 0.0, 1.2184696791468346e-07]",-0.6668522,0.4118793,9.5712904,"[8.999999999999999e-08, 0.0, 0.0, 0.0, 8.999999999999999e-08, 0.0, 0.0, 0.0, 8.999999999999999e-08]",1
1.57E+18,189,1574069823,110835606,base_link,0.028058815,-0.019751905,-0.263632828,-0.964012602,"[1.0, 0.0, 0.0, 0.0, 1.0, 0.0, 0.0, 0.0, 1.0]",-0.136561081,0.148269564,0.077878438,"[1.2184696791468346e-07, 0.0, 0.0, 0.0, 1.2184696791468346e-07, 0.0, 0.0, 0.0, 1.2184696791468346e-07]",-0.2745862,0.06864655,9.9831697,"[8.999999999999999e-08, 0.0, 0.0, 0.0, 8.999999999999999e-08, 0.0, 0.0, 0.0, 8.999999999999999e-08]",1
1.57E+18,190,1574069823,376692986,base_link,0.031429985,-0.023980295,-0.263703874,-0.963793219,"[1.0, 0.0, 0.0, 0.0, 1.0, 0.0, 0.0, 0.0, 1.0]",0.101487055,-0.077400655,-0.044237528,"[1.2184696791468346e-07, 0.0, 0.0, 0.0, 1.2184696791468346e-07, 0.0, 0.0, 0.0, 1.2184696791468346e-07]",-0.34323275,-0.2549729,10.0420096,"[8.999999999999999e-08, 0.0, 0.0, 0.0, 8.999999999999999e-08, 0.0, 0.0, 0.0, 8.999999999999999e-08]",1
1.57E+18,191,1574069823,654708136,base_link,0.013697378,-0.01905612,-0.256372379,-0.966293149,"[1.0, 0.0, 0.0, 0.0, 1.0, 0.0, 0.0, 0.0, 1.0]",0.109517835,0.047794316,-0.115401611,"[1.2184696791468346e-07, 0.0, 0.0, 0.0, 1.2184696791468346e-07, 0.0, 0.0, 0.0, 1.2184696791468346e-07]",-0.4707192,-0.2745862,9.9831697,"[8.999999999999999e-08, 0.0, 0.0, 0.0, 8.999999999999999e-08, 0.0, 0.0, 0.0, 8.999999999999999e-08]",1
1.57E+18,192,1574069823,914043143,base_link,-0.000666593,-0.022128393,-0.248933574,-0.968267507,"[1.0, 0.0, 0.0, 0.0, 1.0, 0.0, 0.0, 0.0, 1.0]",0.049842626,0.078838989,-0.06456688,"[1.2184696791468346e-07, 0.0, 0.0, 0.0, 1.2184696791468346e-07, 0.0, 0.0, 0.0, 1.2184696791468346e-07]",-0.44129925,-0.14709975,9.48303055,"[8.999999999999999e-08, 0.0, 0.0, 0.0, 8.999999999999999e-08, 0.0, 0.0, 0.0, 8.999999999999999e-08]",1
1.57E+18,193,1574069824,208453118,base_link,-0.002547845,-0.021744668,-0.241652644,-0.970115806,"[1.0, 0.0, 0.0, 0.0, 1.0, 0.0, 0.0, 0.0, 1.0]",-0.014852568,-0.00579515,-0.017482705,"[1.2184696791468346e-07, 0.0, 0.0, 0.0, 1.2184696791468346e-07, 0.0, 0.0, 0.0, 1.2184696791468346e-07]",-0.4118793,0.0980665,9.85568325,"[8.999999999999999e-08, 0.0, 0.0, 0.0, 8.999999999999999e-08, 0.0, 0.0, 0.0, 8.999999999999999e-08]",1
