rosbagTimestamp,seq,secs,nsecs,frame_id,xmf,ymf,zmf,magnetic_field_covariance,normality
1.57E+18,53,1574069785,820633188,base_link,111000,222000,-379000,"[-1.0, 0.0, 0.0, 0.0, 0.0, 0.0, 0.0, 0.0, 0.0]",1
1.57E+18,54,1574069786,60073926,base_link,114000,217000,-377000,"[-1.0, 0.0, 0.0, 0.0, 0.0, 0.0, 0.0, 0.0, 0.0]",1
1.57E+18,55,1574069786,297423343,base_link,111000,216000,-369000,"[-1.0, 0.0, 0.0, 0.0, 0.0, 0.0, 0.0, 0.0, 0.0]",1
1.57E+18,56,1574069786,532616666,base_link,104000,221000,-373000,"[-1.0, 0.0, 0.0, 0.0, 0.0, 0.0, 0.0, 0.0, 0.0]",1
1.57E+18,57,1574069786,784905174,base_link,122000,216000,-383000,"[-1.0, 0.0, 0.0, 0.0, 0.0, 0.0, 0.0, 0.0, 0.0]",1
1.57E+18,58,1574069787,19552914,base_link,123000,218000,-371000,"[-1.0, 0.0, 0.0, 0.0, 0.0, 0.0, 0.0, 0.0, 0.0]",1
1.57E+18,59,1574069787,260202320,base_link,112000,217000,-368000,"[-1.0, 0.0, 0.0, 0.0, 0.0, 0.0, 0.0, 0.0, 0.0]",1
1.57E+18,60,1574069787,502453808,base_link,109000,217000,-370000,"[-1.0, 0.0, 0.0, 0.0, 0.0, 0.0, 0.0, 0.0, 0.0]",1
1.57E+18,61,1574069787,732972790,base_link,113000,216000,-380000,"[-1.0, 0.0, 0.0, 0.0, 0.0, 0.0, 0.0, 0.0, 0.0]",1
1.57E+18,62,1574069787,975992759,base_link,116000,217000,-378000,"[-1.0, 0.0, 0.0, 0.0, 0.0, 0.0, 0.0, 0.0, 0.0]",1
1.57E+18,63,1574069788,226005957,base_link,110000,218000,-370000,"[-1.0, 0.0, 0.0, 0.0, 0.0, 0.0, 0.0, 0.0, 0.0]",1
1.57E+18,64,1574069788,470334043,base_link,108000,221000,-372000,"[-1.0, 0.0, 0.0, 0.0, 0.0, 0.0, 0.0, 0.0, 0.0]",1
1.57E+18,65,1574069788,711352307,base_link,112000,221000,-379000,"[-1.0, 0.0, 0.0, 0.0, 0.0, 0.0, 0.0, 0.0, 0.0]",1
1.57E+18,66,1574069788,930133833,base_link,112000,218000,-380000,"[-1.0, 0.0, 0.0, 0.0, 0.0, 0.0, 0.0, 0.0, 0.0]",1
1.57E+18,67,1574069789,181500083,base_link,118000,218000,-379000,"[-1.0, 0.0, 0.0, 0.0, 0.0, 0.0, 0.0, 0.0, 0.0]",1
1.57E+18,68,1574069789,414116212,base_link,107000,221000,-369000,"[-1.0, 0.0, 0.0, 0.0, 0.0, 0.0, 0.0, 0.0, 0.0]",1
1.57E+18,69,1574069789,655225299,base_link,109000,218000,-369000,"[-1.0, 0.0, 0.0, 0.0, 0.0, 0.0, 0.0, 0.0, 0.0]",1
1.57E+18,70,1574069789,896563766,base_link,109000,222000,-377000,"[-1.0, 0.0, 0.0, 0.0, 0.0, 0.0, 0.0, 0.0, 0.0]",1
1.57E+18,71,1574069790,136056075,base_link,118000,218000,-373000,"[-1.0, 0.0, 0.0, 0.0, 0.0, 0.0, 0.0, 0.0, 0.0]",1
1.57E+18,72,1574069790,385095431,base_link,114000,218000,-368000,"[-1.0, 0.0, 0.0, 0.0, 0.0, 0.0, 0.0, 0.0, 0.0]",1
1.57E+18,73,1574069790,614463070,base_link,106000,217000,-375000,"[-1.0, 0.0, 0.0, 0.0, 0.0, 0.0, 0.0, 0.0, 0.0]",1
1.57E+18,74,1574069790,861781913,base_link,114000,217000,-376000,"[-1.0, 0.0, 0.0, 0.0, 0.0, 0.0, 0.0, 0.0, 0.0]",1
1.57E+18,75,1574069791,105118414,base_link,116000,218000,-367000,"[-1.0, 0.0, 0.0, 0.0, 0.0, 0.0, 0.0, 0.0, 0.0]",1
1.57E+18,76,1574069791,340102459,base_link,109000,220000,-372000,"[-1.0, 0.0, 0.0, 0.0, 0.0, 0.0, 0.0, 0.0, 0.0]",1
1.57E+18,77,1574069791,590498164,base_link,107000,217000,-370000,"[-1.0, 0.0, 0.0, 0.0, 0.0, 0.0, 0.0, 0.0, 0.0]",1
1.57E+18,78,1574069791,814570745,base_link,115000,218000,-380000,"[-1.0, 0.0, 0.0, 0.0, 0.0, 0.0, 0.0, 0.0, 0.0]",1
1.57E+18,79,1574069792,55632475,base_link,116000,221000,-375000,"[-1.0, 0.0, 0.0, 0.0, 0.0, 0.0, 0.0, 0.0, 0.0]",1
1.57E+18,80,1574069792,311056739,base_link,111000,219000,-371000,"[-1.0, 0.0, 0.0, 0.0, 0.0, 0.0, 0.0, 0.0, 0.0]",1
1.57E+18,81,1574069792,529269867,base_link,109000,221000,-370000,"[-1.0, 0.0, 0.0, 0.0, 0.0, 0.0, 0.0, 0.0, 0.0]",1
1.57E+18,82,1574069792,786325525,base_link,115000,217000,-376000,"[-1.0, 0.0, 0.0, 0.0, 0.0, 0.0, 0.0, 0.0, 0.0]",1
1.57E+18,83,1574069793,19714999,base_link,114000,218000,-374000,"[-1.0, 0.0, 0.0, 0.0, 0.0, 0.0, 0.0, 0.0, 0.0]",1
1.57E+18,84,1574069793,257516047,base_link,111000,218000,-375000,"[-1.0, 0.0, 0.0, 0.0, 0.0, 0.0, 0.0, 0.0, 0.0]",1
1.57E+18,85,1574069793,500870515,base_link,105000,223000,-370000,"[-1.0, 0.0, 0.0, 0.0, 0.0, 0.0, 0.0, 0.0, 0.0]",1
1.57E+18,86,1574069793,733288562,base_link,114000,220000,-377000,"[-1.0, 0.0, 0.0, 0.0, 0.0, 0.0, 0.0, 0.0, 0.0]",1
1.57E+18,87,1574069793,932437391,base_link,116000,223000,-375000,"[-1.0, 0.0, 0.0, 0.0, 0.0, 0.0, 0.0, 0.0, 0.0]",1
1.57E+18,88,1574069794,180945600,base_link,118000,220000,-374000,"[-1.0, 0.0, 0.0, 0.0, 0.0, 0.0, 0.0, 0.0, 0.0]",1
1.57E+18,89,1574069794,414983062,base_link,114000,221000,-377000,"[-1.0, 0.0, 0.0, 0.0, 0.0, 0.0, 0.0, 0.0, 0.0]",1
1.57E+18,90,1574069794,654796671,base_link,116000,220000,-377000,"[-1.0, 0.0, 0.0, 0.0, 0.0, 0.0, 0.0, 0.0, 0.0]",1
1.57E+18,91,1574069794,891304096,base_link,118000,217000,-378000,"[-1.0, 0.0, 0.0, 0.0, 0.0, 0.0, 0.0, 0.0, 0.0]",1
1.57E+18,92,1574069795,135608178,base_link,118000,220000,-381000,"[-1.0, 0.0, 0.0, 0.0, 0.0, 0.0, 0.0, 0.0, 0.0]",1
1.57E+18,93,1574069795,373837842,base_link,114000,217000,-378000,"[-1.0, 0.0, 0.0, 0.0, 0.0, 0.0, 0.0, 0.0, 0.0]",1
1.57E+18,94,1574069795,646162323,base_link,117000,218000,-374000,"[-1.0, 0.0, 0.0, 0.0, 0.0, 0.0, 0.0, 0.0, 0.0]",1
1.57E+18,95,1574069795,847295210,base_link,118000,215000,-374000,"[-1.0, 0.0, 0.0, 0.0, 0.0, 0.0, 0.0, 0.0, 0.0]",1
1.57E+18,96,1574069796,86710710,base_link,119000,217000,-372000,"[-1.0, 0.0, 0.0, 0.0, 0.0, 0.0, 0.0, 0.0, 0.0]",1
1.57E+18,97,1574069796,356640993,base_link,124000,212000,-368000,"[-1.0, 0.0, 0.0, 0.0, 0.0, 0.0, 0.0, 0.0, 0.0]",1
1.57E+18,98,1574069796,585384193,base_link,122000,217000,-367000,"[-1.0, 0.0, 0.0, 0.0, 0.0, 0.0, 0.0, 0.0, 0.0]",1
1.57E+18,99,1574069796,813256148,base_link,118000,209000,-369000,"[-1.0, 0.0, 0.0, 0.0, 0.0, 0.0, 0.0, 0.0, 0.0]",1
1.57E+18,100,1574069797,48066493,base_link,121000,216000,-372000,"[-1.0, 0.0, 0.0, 0.0, 0.0, 0.0, 0.0, 0.0, 0.0]",1
1.57E+18,101,1574069797,321586094,base_link,120000,213000,-367000,"[-1.0, 0.0, 0.0, 0.0, 0.0, 0.0, 0.0, 0.0, 0.0]",1
1.57E+18,102,1574069797,532209285,base_link,117000,215000,-365000,"[-1.0, 0.0, 0.0, 0.0, 0.0, 0.0, 0.0, 0.0, 0.0]",1
1.57E+18,103,1574069797,770000514,base_link,120000,213000,-366000,"[-1.0, 0.0, 0.0, 0.0, 0.0, 0.0, 0.0, 0.0, 0.0]",1
1.57E+18,104,1574069798,9514161,base_link,119000,212000,-371000,"[-1.0, 0.0, 0.0, 0.0, 0.0, 0.0, 0.0, 0.0, 0.0]",1
1.57E+18,105,1574069798,263293152,base_link,126000,215000,-369000,"[-1.0, 0.0, 0.0, 0.0, 0.0, 0.0, 0.0, 0.0, 0.0]",1
1.57E+18,106,1574069798,495029361,base_link,120000,211000,-367000,"[-1.0, 0.0, 0.0, 0.0, 0.0, 0.0, 0.0, 0.0, 0.0]",1
1.57E+18,107,1574069798,730540735,base_link,118000,211000,-373000,"[-1.0, 0.0, 0.0, 0.0, 0.0, 0.0, 0.0, 0.0, 0.0]",1
1.57E+18,108,1574069798,970356689,base_link,116000,221000,-375000,"[-1.0, 0.0, 0.0, 0.0, 0.0, 0.0, 0.0, 0.0, 0.0]",1
1.57E+18,109,1574069799,234695418,base_link,125000,213000,-373000,"[-1.0, 0.0, 0.0, 0.0, 0.0, 0.0, 0.0, 0.0, 0.0]",1
1.57E+18,110,1574069799,454300062,base_link,122000,211000,-368000,"[-1.0, 0.0, 0.0, 0.0, 0.0, 0.0, 0.0, 0.0, 0.0]",1
1.57E+18,111,1574069799,699944510,base_link,121000,216000,-372000,"[-1.0, 0.0, 0.0, 0.0, 0.0, 0.0, 0.0, 0.0, 0.0]",1
1.57E+18,112,1574069799,932891157,base_link,115000,209000,-372000,"[-1.0, 0.0, 0.0, 0.0, 0.0, 0.0, 0.0, 0.0, 0.0]",1
1.57E+18,113,1574069800,175323740,base_link,119000,214000,-369000,"[-1.0, 0.0, 0.0, 0.0, 0.0, 0.0, 0.0, 0.0, 0.0]",1
1.57E+18,114,1574069800,450556332,base_link,116000,216000,-371000,"[-1.0, 0.0, 0.0, 0.0, 0.0, 0.0, 0.0, 0.0, 0.0]",1
1.57E+18,115,1574069800,647659779,base_link,118000,215000,-373000,"[-1.0, 0.0, 0.0, 0.0, 0.0, 0.0, 0.0, 0.0, 0.0]",1
1.57E+18,116,1574069800,889302688,base_link,120000,209000,-374000,"[-1.0, 0.0, 0.0, 0.0, 0.0, 0.0, 0.0, 0.0, 0.0]",1
1.57E+18,117,1574069801,129884049,base_link,123000,216000,-369000,"[-1.0, 0.0, 0.0, 0.0, 0.0, 0.0, 0.0, 0.0, 0.0]",1
1.57E+18,118,1574069801,381108498,base_link,116000,212000,-366000,"[-1.0, 0.0, 0.0, 0.0, 0.0, 0.0, 0.0, 0.0, 0.0]",1
1.57E+18,119,1574069801,631064837,base_link,121000,213000,-368000,"[-1.0, 0.0, 0.0, 0.0, 0.0, 0.0, 0.0, 0.0, 0.0]",1
1.57E+18,120,1574069801,854173633,base_link,119000,211000,-364000,"[-1.0, 0.0, 0.0, 0.0, 0.0, 0.0, 0.0, 0.0, 0.0]",1
1.57E+18,121,1574069802,100036398,base_link,123000,214000,-369000,"[-1.0, 0.0, 0.0, 0.0, 0.0, 0.0, 0.0, 0.0, 0.0]",1
1.57E+18,122,1574069802,337190913,base_link,125000,213000,-371000,"[-1.0, 0.0, 0.0, 0.0, 0.0, 0.0, 0.0, 0.0, 0.0]",1
1.57E+18,123,1574069802,620353261,base_link,114000,215000,-367000,"[-1.0, 0.0, 0.0, 0.0, 0.0, 0.0, 0.0, 0.0, 0.0]",1
1.57E+18,124,1574069802,815216298,base_link,123000,213000,-374000,"[-1.0, 0.0, 0.0, 0.0, 0.0, 0.0, 0.0, 0.0, 0.0]",1
1.57E+18,125,1574069803,54927691,base_link,125000,209000,-372000,"[-1.0, 0.0, 0.0, 0.0, 0.0, 0.0, 0.0, 0.0, 0.0]",1
1.57E+18,126,1574069803,289864217,base_link,118000,212000,-367000,"[-1.0, 0.0, 0.0, 0.0, 0.0, 0.0, 0.0, 0.0, 0.0]",1
1.57E+18,127,1574069803,531093054,base_link,125000,214000,-358000,"[-1.0, 0.0, 0.0, 0.0, 0.0, 0.0, 0.0, 0.0, 0.0]",1
1.57E+18,128,1574069803,791990393,base_link,123000,210000,-364000,"[-1.0, 0.0, 0.0, 0.0, 0.0, 0.0, 0.0, 0.0, 0.0]",1
1.57E+18,129,1574069804,15862543,base_link,120000,209000,-369000,"[-1.0, 0.0, 0.0, 0.0, 0.0, 0.0, 0.0, 0.0, 0.0]",1
1.57E+18,130,1574069804,256210444,base_link,128000,210000,-360000,"[-1.0, 0.0, 0.0, 0.0, 0.0, 0.0, 0.0, 0.0, 0.0]",1
1.57E+18,131,1574069804,486927464,base_link,120000,208000,-366000,"[-1.0, 0.0, 0.0, 0.0, 0.0, 0.0, 0.0, 0.0, 0.0]",1
1.57E+18,132,1574069804,770414262,base_link,122000,211000,-369000,"[-1.0, 0.0, 0.0, 0.0, 0.0, 0.0, 0.0, 0.0, 0.0]",1
1.57E+18,133,1574069804,971984625,base_link,121000,212000,-369000,"[-1.0, 0.0, 0.0, 0.0, 0.0, 0.0, 0.0, 0.0, 0.0]",1
1.57E+18,134,1574069805,224493887,base_link,130000,204000,-367000,"[-1.0, 0.0, 0.0, 0.0, 0.0, 0.0, 0.0, 0.0, 0.0]",1
1.57E+18,135,1574069805,452348949,base_link,126000,204000,-363000,"[-1.0, 0.0, 0.0, 0.0, 0.0, 0.0, 0.0, 0.0, 0.0]",1
1.57E+18,136,1574069805,714730782,base_link,131000,209000,-364000,"[-1.0, 0.0, 0.0, 0.0, 0.0, 0.0, 0.0, 0.0, 0.0]",1
1.57E+18,137,1574069805,956908202,base_link,130000,218000,-364000,"[-1.0, 0.0, 0.0, 0.0, 0.0, 0.0, 0.0, 0.0, 0.0]",1
1.57E+18,138,1574069806,172827712,base_link,121000,216000,-369000,"[-1.0, 0.0, 0.0, 0.0, 0.0, 0.0, 0.0, 0.0, 0.0]",1
1.57E+18,139,1574069806,432893857,base_link,103000,211000,-368000,"[-1.0, 0.0, 0.0, 0.0, 0.0, 0.0, 0.0, 0.0, 0.0]",1
1.57E+18,140,1574069806,677831362,base_link,110000,218000,-365000,"[-1.0, 0.0, 0.0, 0.0, 0.0, 0.0, 0.0, 0.0, 0.0]",1
1.57E+18,141,1574069806,921981185,base_link,108000,222000,-369000,"[-1.0, 0.0, 0.0, 0.0, 0.0, 0.0, 0.0, 0.0, 0.0]",1
1.57E+18,142,1574069807,135447979,base_link,105000,220000,-368000,"[-1.0, 0.0, 0.0, 0.0, 0.0, 0.0, 0.0, 0.0, 0.0]",1
1.57E+18,143,1574069807,375259024,base_link,111000,216000,-358000,"[-1.0, 0.0, 0.0, 0.0, 0.0, 0.0, 0.0, 0.0, 0.0]",1
1.57E+18,144,1574069807,642717942,base_link,103000,218000,-366000,"[-1.0, 0.0, 0.0, 0.0, 0.0, 0.0, 0.0, 0.0, 0.0]",1
1.57E+18,145,1574069807,856098885,base_link,102000,226000,-368000,"[-1.0, 0.0, 0.0, 0.0, 0.0, 0.0, 0.0, 0.0, 0.0]",1
1.57E+18,146,1574069808,85982614,base_link,100000,228000,-367000,"[-1.0, 0.0, 0.0, 0.0, 0.0, 0.0, 0.0, 0.0, 0.0]",1
1.57E+18,147,1574069808,338249938,base_link,96000,223000,-359000,"[-1.0, 0.0, 0.0, 0.0, 0.0, 0.0, 0.0, 0.0, 0.0]",1
1.57E+18,148,1574069808,596783772,base_link,67000,224000,-365000,"[-1.0, 0.0, 0.0, 0.0, 0.0, 0.0, 0.0, 0.0, 0.0]",1
1.57E+18,149,1574069808,814371330,base_link,55000,223000,-358000,"[-1.0, 0.0, 0.0, 0.0, 0.0, 0.0, 0.0, 0.0, 0.0]",1
1.57E+18,150,1574069809,44139797,base_link,55000,224000,-366000,"[-1.0, 0.0, 0.0, 0.0, 0.0, 0.0, 0.0, 0.0, 0.0]",1
1.57E+18,151,1574069809,322294395,base_link,58000,228000,-367000,"[-1.0, 0.0, 0.0, 0.0, 0.0, 0.0, 0.0, 0.0, 0.0]",1
1.57E+18,152,1574069809,544142343,base_link,54000,219000,-362000,"[-1.0, 0.0, 0.0, 0.0, 0.0, 0.0, 0.0, 0.0, 0.0]",1
1.57E+18,153,1574069809,770180288,base_link,56000,217000,-368000,"[-1.0, 0.0, 0.0, 0.0, 0.0, 0.0, 0.0, 0.0, 0.0]",1
1.57E+18,154,1574069810,14856537,base_link,55000,221000,-371000,"[-1.0, 0.0, 0.0, 0.0, 0.0, 0.0, 0.0, 0.0, 0.0]",1
1.57E+18,155,1574069810,244539100,base_link,49000,222000,-368000,"[-1.0, 0.0, 0.0, 0.0, 0.0, 0.0, 0.0, 0.0, 0.0]",1
1.57E+18,156,1574069810,511683189,base_link,44000,224000,-363000,"[-1.0, 0.0, 0.0, 0.0, 0.0, 0.0, 0.0, 0.0, 0.0]",1
1.57E+18,157,1574069810,735676645,base_link,42000,224000,-365000,"[-1.0, 0.0, 0.0, 0.0, 0.0, 0.0, 0.0, 0.0, 0.0]",1
1.57E+18,158,1574069810,966013512,base_link,42000,215000,-369000,"[-1.0, 0.0, 0.0, 0.0, 0.0, 0.0, 0.0, 0.0, 0.0]",1
1.57E+18,159,1574069811,220357749,base_link,48000,221000,-367000,"[-1.0, 0.0, 0.0, 0.0, 0.0, 0.0, 0.0, 0.0, 0.0]",1
1.57E+18,160,1574069811,448985004,base_link,60000,222000,-363000,"[-1.0, 0.0, 0.0, 0.0, 0.0, 0.0, 0.0, 0.0, 0.0]",1
1.57E+18,161,1574069811,735212009,base_link,70000,216000,-373000,"[-1.0, 0.0, 0.0, 0.0, 0.0, 0.0, 0.0, 0.0, 0.0]",1
1.57E+18,162,1574069811,931538699,base_link,69000,218000,-361000,"[-1.0, 0.0, 0.0, 0.0, 0.0, 0.0, 0.0, 0.0, 0.0]",1
1.57E+18,163,1574069812,176247974,base_link,84000,227000,-367000,"[-1.0, 0.0, 0.0, 0.0, 0.0, 0.0, 0.0, 0.0, 0.0]",1
1.57E+18,164,1574069812,432064577,base_link,88000,219000,-360000,"[-1.0, 0.0, 0.0, 0.0, 0.0, 0.0, 0.0, 0.0, 0.0]",1
1.57E+18,165,1574069812,651285570,base_link,98000,223000,-355000,"[-1.0, 0.0, 0.0, 0.0, 0.0, 0.0, 0.0, 0.0, 0.0]",1
1.57E+18,166,1574069812,904982769,base_link,97000,226000,-358000,"[-1.0, 0.0, 0.0, 0.0, 0.0, 0.0, 0.0, 0.0, 0.0]",1
1.57E+18,167,1574069813,130486009,base_link,96000,225000,-355000,"[-1.0, 0.0, 0.0, 0.0, 0.0, 0.0, 0.0, 0.0, 0.0]",1
1.57E+18,168,1574069813,374370918,base_link,103000,234000,-350000,"[-1.0, 0.0, 0.0, 0.0, 0.0, 0.0, 0.0, 0.0, 0.0]",1
1.57E+18,169,1574069813,614993271,base_link,97000,240000,-345000,"[-1.0, 0.0, 0.0, 0.0, 0.0, 0.0, 0.0, 0.0, 0.0]",1
1.57E+18,170,1574069813,852039036,base_link,91000,244000,-347000,"[-1.0, 0.0, 0.0, 0.0, 0.0, 0.0, 0.0, 0.0, 0.0]",1
1.57E+18,171,1574069814,91984741,base_link,84000,243000,-341000,"[-1.0, 0.0, 0.0, 0.0, 0.0, 0.0, 0.0, 0.0, 0.0]",1
1.57E+18,172,1574069814,339224908,base_link,91000,247000,-336000,"[-1.0, 0.0, 0.0, 0.0, 0.0, 0.0, 0.0, 0.0, 0.0]",1
1.57E+18,173,1574069814,568992856,base_link,86000,241000,-340000,"[-1.0, 0.0, 0.0, 0.0, 0.0, 0.0, 0.0, 0.0, 0.0]",1
1.57E+18,174,1574069814,815671214,base_link,93000,237000,-362000,"[-1.0, 0.0, 0.0, 0.0, 0.0, 0.0, 0.0, 0.0, 0.0]",1
1.57E+18,175,1574069815,48559045,base_link,91000,236000,-346000,"[-1.0, 0.0, 0.0, 0.0, 0.0, 0.0, 0.0, 0.0, 0.0]",1
1.57E+18,176,1574069815,302538123,base_link,95000,238000,-357000,"[-1.0, 0.0, 0.0, 0.0, 0.0, 0.0, 0.0, 0.0, 0.0]",1
1.57E+18,177,1574069815,529595269,base_link,96000,234000,-355000,"[-1.0, 0.0, 0.0, 0.0, 0.0, 0.0, 0.0, 0.0, 0.0]",1
1.57E+18,178,1574069815,785316273,base_link,76000,239000,-350000,"[-1.0, 0.0, 0.0, 0.0, 0.0, 0.0, 0.0, 0.0, 0.0]",1
1.57E+18,179,1574069816,14859189,base_link,79000,243000,-351000,"[-1.0, 0.0, 0.0, 0.0, 0.0, 0.0, 0.0, 0.0, 0.0]",1
1.57E+18,180,1574069816,261728159,base_link,88000,246000,-348000,"[-1.0, 0.0, 0.0, 0.0, 0.0, 0.0, 0.0, 0.0, 0.0]",1
1.57E+18,181,1574069816,489150200,base_link,108000,244000,-334000,"[-1.0, 0.0, 0.0, 0.0, 0.0, 0.0, 0.0, 0.0, 0.0]",1
1.57E+18,182,1574069816,734347400,base_link,110000,247000,-342000,"[-1.0, 0.0, 0.0, 0.0, 0.0, 0.0, 0.0, 0.0, 0.0]",1
1.57E+18,183,1574069816,968712387,base_link,101000,252000,-344000,"[-1.0, 0.0, 0.0, 0.0, 0.0, 0.0, 0.0, 0.0, 0.0]",1
1.57E+18,184,1574069817,208699928,base_link,99000,242000,-324000,"[-1.0, 0.0, 0.0, 0.0, 0.0, 0.0, 0.0, 0.0, 0.0]",1
1.57E+18,185,1574069817,454284531,base_link,74000,253000,-342000,"[-1.0, 0.0, 0.0, 0.0, 0.0, 0.0, 0.0, 0.0, 0.0]",1
1.57E+18,186,1574069817,698666075,base_link,78000,250000,-340000,"[-1.0, 0.0, 0.0, 0.0, 0.0, 0.0, 0.0, 0.0, 0.0]",1
1.57E+18,187,1574069817,955379276,base_link,80000,253000,-335000,"[-1.0, 0.0, 0.0, 0.0, 0.0, 0.0, 0.0, 0.0, 0.0]",1
1.57E+18,188,1574069818,214683056,base_link,94000,248000,-336000,"[-1.0, 0.0, 0.0, 0.0, 0.0, 0.0, 0.0, 0.0, 0.0]",1
1.57E+18,189,1574069818,411798636,base_link,89000,252000,-339000,"[-1.0, 0.0, 0.0, 0.0, 0.0, 0.0, 0.0, 0.0, 0.0]",1
1.57E+18,190,1574069818,647223570,base_link,105000,241000,-334000,"[-1.0, 0.0, 0.0, 0.0, 0.0, 0.0, 0.0, 0.0, 0.0]",1
1.57E+18,191,1574069818,887023702,base_link,91000,257000,-348000,"[-1.0, 0.0, 0.0, 0.0, 0.0, 0.0, 0.0, 0.0, 0.0]",1
1.57E+18,192,1574069819,151625422,base_link,98000,246000,-351000,"[-1.0, 0.0, 0.0, 0.0, 0.0, 0.0, 0.0, 0.0, 0.0]",1
1.57E+18,193,1574069819,373222129,base_link,99000,232000,-345000,"[-1.0, 0.0, 0.0, 0.0, 0.0, 0.0, 0.0, 0.0, 0.0]",1
1.57E+18,194,1574069819,615135274,base_link,104000,236000,-360000,"[-1.0, 0.0, 0.0, 0.0, 0.0, 0.0, 0.0, 0.0, 0.0]",1
1.57E+18,195,1574069819,867146311,base_link,114000,229000,-357000,"[-1.0, 0.0, 0.0, 0.0, 0.0, 0.0, 0.0, 0.0, 0.0]",1
1.57E+18,196,1574069820,122873867,base_link,122000,228000,-353000,"[-1.0, 0.0, 0.0, 0.0, 0.0, 0.0, 0.0, 0.0, 0.0]",1
1.57E+18,197,1574069820,344655398,base_link,122000,225000,-340000,"[-1.0, 0.0, 0.0, 0.0, 0.0, 0.0, 0.0, 0.0, 0.0]",1
1.57E+18,198,1574069820,584339659,base_link,125000,227000,-344000,"[-1.0, 0.0, 0.0, 0.0, 0.0, 0.0, 0.0, 0.0, 0.0]",1
1.57E+18,199,1574069820,822211448,base_link,129000,217000,-351000,"[-1.0, 0.0, 0.0, 0.0, 0.0, 0.0, 0.0, 0.0, 0.0]",1
1.57E+18,200,1574069821,64773601,base_link,129000,199000,-367000,"[-1.0, 0.0, 0.0, 0.0, 0.0, 0.0, 0.0, 0.0, 0.0]",1
1.57E+18,201,1574069821,295709386,base_link,130000,187000,-379000,"[-1.0, 0.0, 0.0, 0.0, 0.0, 0.0, 0.0, 0.0, 0.0]",1
1.57E+18,202,1574069821,540994868,base_link,128000,179000,-369000,"[-1.0, 0.0, 0.0, 0.0, 0.0, 0.0, 0.0, 0.0, 0.0]",1
1.57E+18,203,1574069821,792995019,base_link,122000,173000,-383000,"[-1.0, 0.0, 0.0, 0.0, 0.0, 0.0, 0.0, 0.0, 0.0]",1
1.57E+18,204,1574069822,30644675,base_link,127000,166000,-374000,"[-1.0, 0.0, 0.0, 0.0, 0.0, 0.0, 0.0, 0.0, 0.0]",1
1.57E+18,205,1574069822,247591128,base_link,114000,162000,-383000,"[-1.0, 0.0, 0.0, 0.0, 0.0, 0.0, 0.0, 0.0, 0.0]",1
1.57E+18,206,1574069822,491963746,base_link,126000,177000,-384000,"[-1.0, 0.0, 0.0, 0.0, 0.0, 0.0, 0.0, 0.0, 0.0]",1
1.57E+18,207,1574069822,734586835,base_link,123000,199000,-377000,"[-1.0, 0.0, 0.0, 0.0, 0.0, 0.0, 0.0, 0.0, 0.0]",1
1.57E+18,208,1574069822,990741212,base_link,123000,225000,-352000,"[-1.0, 0.0, 0.0, 0.0, 0.0, 0.0, 0.0, 0.0, 0.0]",1
1.57E+18,209,1574069823,211896457,base_link,136000,235000,-343000,"[-1.0, 0.0, 0.0, 0.0, 0.0, 0.0, 0.0, 0.0, 0.0]",1
1.57E+18,210,1574069823,451202477,base_link,141000,226000,-332000,"[-1.0, 0.0, 0.0, 0.0, 0.0, 0.0, 0.0, 0.0, 0.0]",1
1.57E+18,211,1574069823,689355114,base_link,127000,231000,-354000,"[-1.0, 0.0, 0.0, 0.0, 0.0, 0.0, 0.0, 0.0, 0.0]",1
1.57E+18,212,1574069823,935709219,base_link,127000,229000,-362000,"[-1.0, 0.0, 0.0, 0.0, 0.0, 0.0, 0.0, 0.0, 0.0]",1
1.57E+18,213,1574069824,190000810,base_link,128000,215000,-359000,"[-1.0, 0.0, 0.0, 0.0, 0.0, 0.0, 0.0, 0.0, 0.0]",1
1.57E+18,214,1574069824,413511266,base_link,122000,217000,-358000,"[-1.0, 0.0, 0.0, 0.0, 0.0, 0.0, 0.0, 0.0, 0.0]",1
1.57E+18,215,1574069824,651993375,base_link,131000,216000,-363000,"[-1.0, 0.0, 0.0, 0.0, 0.0, 0.0, 0.0, 0.0, 0.0]",1
1.57E+18,216,1574069824,889304142,base_link,133000,212000,-347000,"[-1.0, 0.0, 0.0, 0.0, 0.0, 0.0, 0.0, 0.0, 0.0]",1
1.57E+18,217,1574069825,129357218,base_link,139000,217000,-364000,"[-1.0, 0.0, 0.0, 0.0, 0.0, 0.0, 0.0, 0.0, 0.0]",1
1.57E+18,218,1574069825,370836703,base_link,150000,213000,-353000,"[-1.0, 0.0, 0.0, 0.0, 0.0, 0.0, 0.0, 0.0, 0.0]",1
1.57E+18,219,1574069825,614869401,base_link,147000,218000,-348000,"[-1.0, 0.0, 0.0, 0.0, 0.0, 0.0, 0.0, 0.0, 0.0]",1
1.57E+18,220,1574069825,846281679,base_link,145000,225000,-343000,"[-1.0, 0.0, 0.0, 0.0, 0.0, 0.0, 0.0, 0.0, 0.0]",1
1.57E+18,221,1574069826,105306041,base_link,149000,230000,-354000,"[-1.0, 0.0, 0.0, 0.0, 0.0, 0.0, 0.0, 0.0, 0.0]",1
1.57E+18,222,1574069826,331526531,base_link,154000,220000,-341000,"[-1.0, 0.0, 0.0, 0.0, 0.0, 0.0, 0.0, 0.0, 0.0]",1
1.57E+18,223,1574069826,572170975,base_link,144000,216000,-356000,"[-1.0, 0.0, 0.0, 0.0, 0.0, 0.0, 0.0, 0.0, 0.0]",1
1.57E+18,224,1574069826,809145306,base_link,150000,215000,-358000,"[-1.0, 0.0, 0.0, 0.0, 0.0, 0.0, 0.0, 0.0, 0.0]",1
1.57E+18,225,1574069827,54666275,base_link,148000,205000,-358000,"[-1.0, 0.0, 0.0, 0.0, 0.0, 0.0, 0.0, 0.0, 0.0]",1
1.57E+18,226,1574069827,289509020,base_link,153000,202000,-348000,"[-1.0, 0.0, 0.0, 0.0, 0.0, 0.0, 0.0, 0.0, 0.0]",1
1.57E+18,227,1574069827,530017069,base_link,142000,213000,-350000,"[-1.0, 0.0, 0.0, 0.0, 0.0, 0.0, 0.0, 0.0, 0.0]",1
1.57E+18,228,1574069827,775695929,base_link,137000,221000,-350000,"[-1.0, 0.0, 0.0, 0.0, 0.0, 0.0, 0.0, 0.0, 0.0]",1
1.57E+18,229,1574069828,11047986,base_link,135000,221000,-350000,"[-1.0, 0.0, 0.0, 0.0, 0.0, 0.0, 0.0, 0.0, 0.0]",1
1.57E+18,230,1574069828,281669615,base_link,138000,209000,-357000,"[-1.0, 0.0, 0.0, 0.0, 0.0, 0.0, 0.0, 0.0, 0.0]",1
1.57E+18,231,1574069828,495475156,base_link,124000,220000,-361000,"[-1.0, 0.0, 0.0, 0.0, 0.0, 0.0, 0.0, 0.0, 0.0]",1
1.57E+18,232,1574069828,729234750,base_link,121000,222000,-355000,"[-1.0, 0.0, 0.0, 0.0, 0.0, 0.0, 0.0, 0.0, 0.0]",1
1.57E+18,233,1574069828,972489119,base_link,112000,231000,-358000,"[-1.0, 0.0, 0.0, 0.0, 0.0, 0.0, 0.0, 0.0, 0.0]",1
1.57E+18,234,1574069829,208588160,base_link,122000,222000,-352000,"[-1.0, 0.0, 0.0, 0.0, 0.0, 0.0, 0.0, 0.0, 0.0]",1
1.57E+18,235,1574069829,448119247,base_link,129000,219000,-351000,"[-1.0, 0.0, 0.0, 0.0, 0.0, 0.0, 0.0, 0.0, 0.0]",1
1.57E+18,236,1574069829,686857339,base_link,121000,223000,-358000,"[-1.0, 0.0, 0.0, 0.0, 0.0, 0.0, 0.0, 0.0, 0.0]",1
1.57E+18,237,1574069829,932505241,base_link,137000,219000,-350000,"[-1.0, 0.0, 0.0, 0.0, 0.0, 0.0, 0.0, 0.0, 0.0]",1
1.57E+18,238,1574069830,180614027,base_link,136000,214000,-357000,"[-1.0, 0.0, 0.0, 0.0, 0.0, 0.0, 0.0, 0.0, 0.0]",1
1.57E+18,239,1574069830,429387196,base_link,144000,223000,-338000,"[-1.0, 0.0, 0.0, 0.0, 0.0, 0.0, 0.0, 0.0, 0.0]",1
1.57E+18,240,1574069830,674687068,base_link,149000,228000,-342000,"[-1.0, 0.0, 0.0, 0.0, 0.0, 0.0, 0.0, 0.0, 0.0]",1
1.57E+18,241,1574069830,893054240,base_link,141000,240000,-342000,"[-1.0, 0.0, 0.0, 0.0, 0.0, 0.0, 0.0, 0.0, 0.0]",1
1.57E+18,242,1574069831,130127621,base_link,152000,225000,-340000,"[-1.0, 0.0, 0.0, 0.0, 0.0, 0.0, 0.0, 0.0, 0.0]",1
1.57E+18,243,1574069831,385027483,base_link,154000,219000,-332000,"[-1.0, 0.0, 0.0, 0.0, 0.0, 0.0, 0.0, 0.0, 0.0]",1
1.57E+18,244,1574069831,614706470,base_link,154000,224000,-336000,"[-1.0, 0.0, 0.0, 0.0, 0.0, 0.0, 0.0, 0.0, 0.0]",1
1.57E+18,245,1574069831,846926829,base_link,158000,231000,-340000,"[-1.0, 0.0, 0.0, 0.0, 0.0, 0.0, 0.0, 0.0, 0.0]",1
1.57E+18,246,1574069832,105532705,base_link,164000,229000,-336000,"[-1.0, 0.0, 0.0, 0.0, 0.0, 0.0, 0.0, 0.0, 0.0]",1
1.57E+18,247,1574069832,346212333,base_link,158000,229000,-338000,"[-1.0, 0.0, 0.0, 0.0, 0.0, 0.0, 0.0, 0.0, 0.0]",1
1.57E+18,248,1574069832,599729739,base_link,153000,230000,-338000,"[-1.0, 0.0, 0.0, 0.0, 0.0, 0.0, 0.0, 0.0, 0.0]",1
1.57E+18,249,1574069832,870202428,base_link,151000,225000,-339000,"[-1.0, 0.0, 0.0, 0.0, 0.0, 0.0, 0.0, 0.0, 0.0]",1
1.57E+18,250,1574069833,44362462,base_link,149000,232000,-336000,"[-1.0, 0.0, 0.0, 0.0, 0.0, 0.0, 0.0, 0.0, 0.0]",1
1.57E+18,251,1574069833,294746591,base_link,139000,243000,-346000,"[-1.0, 0.0, 0.0, 0.0, 0.0, 0.0, 0.0, 0.0, 0.0]",1
1.57E+18,252,1574069833,532298946,base_link,147000,235000,-330000,"[-1.0, 0.0, 0.0, 0.0, 0.0, 0.0, 0.0, 0.0, 0.0]",1
1.57E+18,253,1574069833,772341987,base_link,132000,238000,-337000,"[-1.0, 0.0, 0.0, 0.0, 0.0, 0.0, 0.0, 0.0, 0.0]",1
1.57E+18,254,1574069834,10736534,base_link,128000,235000,-348000,"[-1.0, 0.0, 0.0, 0.0, 0.0, 0.0, 0.0, 0.0, 0.0]",1
1.57E+18,255,1574069834,260960449,base_link,131000,236000,-343000,"[-1.0, 0.0, 0.0, 0.0, 0.0, 0.0, 0.0, 0.0, 0.0]",1
1.57E+18,256,1574069834,531992547,base_link,134000,234000,-340000,"[-1.0, 0.0, 0.0, 0.0, 0.0, 0.0, 0.0, 0.0, 0.0]",1
1.57E+18,257,1574069834,775270666,base_link,136000,235000,-345000,"[-1.0, 0.0, 0.0, 0.0, 0.0, 0.0, 0.0, 0.0, 0.0]",1
1.57E+18,258,1574069834,978834315,base_link,137000,235000,-341000,"[-1.0, 0.0, 0.0, 0.0, 0.0, 0.0, 0.0, 0.0, 0.0]",1
1.57E+18,259,1574069835,209413206,base_link,142000,235000,-339000,"[-1.0, 0.0, 0.0, 0.0, 0.0, 0.0, 0.0, 0.0, 0.0]",1
1.57E+18,260,1574069835,474295086,base_link,138000,242000,-345000,"[-1.0, 0.0, 0.0, 0.0, 0.0, 0.0, 0.0, 0.0, 0.0]",1
1.57E+18,261,1574069835,689799648,base_link,146000,234000,-336000,"[-1.0, 0.0, 0.0, 0.0, 0.0, 0.0, 0.0, 0.0, 0.0]",1
1.57E+18,262,1574069835,932463338,base_link,146000,236000,-335000,"[-1.0, 0.0, 0.0, 0.0, 0.0, 0.0, 0.0, 0.0, 0.0]",1
1.57E+18,263,1574069836,175204478,base_link,143000,240000,-336000,"[-1.0, 0.0, 0.0, 0.0, 0.0, 0.0, 0.0, 0.0, 0.0]",1
1.57E+18,264,1574069836,409572850,base_link,148000,234000,-337000,"[-1.0, 0.0, 0.0, 0.0, 0.0, 0.0, 0.0, 0.0, 0.0]",1
1.57E+18,265,1574069836,672155803,base_link,142000,244000,-348000,"[-1.0, 0.0, 0.0, 0.0, 0.0, 0.0, 0.0, 0.0, 0.0]",1
1.57E+18,266,1574069836,886747879,base_link,143000,233000,-332000,"[-1.0, 0.0, 0.0, 0.0, 0.0, 0.0, 0.0, 0.0, 0.0]",1
1.57E+18,267,1574069837,144661967,base_link,147000,243000,-337000,"[-1.0, 0.0, 0.0, 0.0, 0.0, 0.0, 0.0, 0.0, 0.0]",1
1.57E+18,268,1574069837,384864930,base_link,133000,245000,-335000,"[-1.0, 0.0, 0.0, 0.0, 0.0, 0.0, 0.0, 0.0, 0.0]",1
1.57E+18,269,1574069837,609539500,base_link,138000,241000,-335000,"[-1.0, 0.0, 0.0, 0.0, 0.0, 0.0, 0.0, 0.0, 0.0]",1
1.57E+18,270,1574069837,855564346,base_link,147000,238000,-336000,"[-1.0, 0.0, 0.0, 0.0, 0.0, 0.0, 0.0, 0.0, 0.0]",1
1.57E+18,271,1574069838,105312875,base_link,145000,240000,-330000,"[-1.0, 0.0, 0.0, 0.0, 0.0, 0.0, 0.0, 0.0, 0.0]",1
1.57E+18,272,1574069838,330665406,base_link,141000,244000,-334000,"[-1.0, 0.0, 0.0, 0.0, 0.0, 0.0, 0.0, 0.0, 0.0]",1
1.57E+18,273,1574069838,605151145,base_link,142000,246000,-337000,"[-1.0, 0.0, 0.0, 0.0, 0.0, 0.0, 0.0, 0.0, 0.0]",1
1.57E+18,274,1574069838,811217143,base_link,141000,239000,-331000,"[-1.0, 0.0, 0.0, 0.0, 0.0, 0.0, 0.0, 0.0, 0.0]",1
1.57E+18,275,1574069839,45748442,base_link,147000,238000,-337000,"[-1.0, 0.0, 0.0, 0.0, 0.0, 0.0, 0.0, 0.0, 0.0]",1
1.57E+18,276,1574069839,289684682,base_link,148000,234000,-344000,"[-1.0, 0.0, 0.0, 0.0, 0.0, 0.0, 0.0, 0.0, 0.0]",1
1.57E+18,277,1574069839,531351458,base_link,146000,235000,-342000,"[-1.0, 0.0, 0.0, 0.0, 0.0, 0.0, 0.0, 0.0, 0.0]",1
1.57E+18,278,1574069839,787102692,base_link,144000,251000,-353000,"[-1.0, 0.0, 0.0, 0.0, 0.0, 0.0, 0.0, 0.0, 0.0]",1
1.57E+18,279,1574069840,41626270,base_link,146000,235000,-338000,"[-1.0, 0.0, 0.0, 0.0, 0.0, 0.0, 0.0, 0.0, 0.0]",1
1.57E+18,280,1574069840,247191022,base_link,147000,230000,-342000,"[-1.0, 0.0, 0.0, 0.0, 0.0, 0.0, 0.0, 0.0, 0.0]",1
1.57E+18,281,1574069840,489595123,base_link,138000,230000,-343000,"[-1.0, 0.0, 0.0, 0.0, 0.0, 0.0, 0.0, 0.0, 0.0]",1
1.57E+18,282,1574069840,763402155,base_link,139000,237000,-336000,"[-1.0, 0.0, 0.0, 0.0, 0.0, 0.0, 0.0, 0.0, 0.0]",1
1.57E+18,283,1574069840,975906896,base_link,140000,225000,-312000,"[-1.0, 0.0, 0.0, 0.0, 0.0, 0.0, 0.0, 0.0, 0.0]",1
1.57E+18,284,1574069841,221660965,base_link,134000,236000,-334000,"[-1.0, 0.0, 0.0, 0.0, 0.0, 0.0, 0.0, 0.0, 0.0]",1
1.57E+18,285,1574069841,447939827,base_link,131000,238000,-335000,"[-1.0, 0.0, 0.0, 0.0, 0.0, 0.0, 0.0, 0.0, 0.0]",1
1.57E+18,286,1574069841,692193828,base_link,130000,238000,-343000,"[-1.0, 0.0, 0.0, 0.0, 0.0, 0.0, 0.0, 0.0, 0.0]",1
1.57E+18,287,1574069841,991060185,base_link,135000,229000,-341000,"[-1.0, 0.0, 0.0, 0.0, 0.0, 0.0, 0.0, 0.0, 0.0]",1
1.57E+18,288,1574069842,201376780,base_link,137000,235000,-341000,"[-1.0, 0.0, 0.0, 0.0, 0.0, 0.0, 0.0, 0.0, 0.0]",1
1.57E+18,289,1574069842,428766623,base_link,140000,233000,-337000,"[-1.0, 0.0, 0.0, 0.0, 0.0, 0.0, 0.0, 0.0, 0.0]",1
1.57E+18,290,1574069842,651415659,base_link,146000,224000,-326000,"[-1.0, 0.0, 0.0, 0.0, 0.0, 0.0, 0.0, 0.0, 0.0]",1
1.57E+18,291,1574069842,886817311,base_link,148000,238000,-327000,"[-1.0, 0.0, 0.0, 0.0, 0.0, 0.0, 0.0, 0.0, 0.0]",1
1.57E+18,292,1574069843,129343795,base_link,146000,247000,-338000,"[-1.0, 0.0, 0.0, 0.0, 0.0, 0.0, 0.0, 0.0, 0.0]",1
1.57E+18,293,1574069843,398873948,base_link,146000,241000,-328000,"[-1.0, 0.0, 0.0, 0.0, 0.0, 0.0, 0.0, 0.0, 0.0]",1
1.57E+18,294,1574069843,613473402,base_link,147000,245000,-327000,"[-1.0, 0.0, 0.0, 0.0, 0.0, 0.0, 0.0, 0.0, 0.0]",1
1.57E+18,295,1574069843,847398688,base_link,149000,240000,-336000,"[-1.0, 0.0, 0.0, 0.0, 0.0, 0.0, 0.0, 0.0, 0.0]",1
1.57E+18,296,1574069844,103944085,base_link,139000,242000,-343000,"[-1.0, 0.0, 0.0, 0.0, 0.0, 0.0, 0.0, 0.0, 0.0]",1
1.57E+18,297,1574069844,332900146,base_link,133000,243000,-350000,"[-1.0, 0.0, 0.0, 0.0, 0.0, 0.0, 0.0, 0.0, 0.0]",1
1.57E+18,298,1574069844,596006628,base_link,129000,239000,-346000,"[-1.0, 0.0, 0.0, 0.0, 0.0, 0.0, 0.0, 0.0, 0.0]",1
1.57E+18,299,1574069844,816241572,base_link,120000,232000,-347000,"[-1.0, 0.0, 0.0, 0.0, 0.0, 0.0, 0.0, 0.0, 0.0]",1
1.57E+18,300,1574069845,52401305,base_link,111000,228000,-345000,"[-1.0, 0.0, 0.0, 0.0, 0.0, 0.0, 0.0, 0.0, 0.0]",1
1.57E+18,301,1574069845,297012068,base_link,103000,232000,-349000,"[-1.0, 0.0, 0.0, 0.0, 0.0, 0.0, 0.0, 0.0, 0.0]",1
1.57E+18,302,1574069845,535405976,base_link,93000,222000,-354000,"[-1.0, 0.0, 0.0, 0.0, 0.0, 0.0, 0.0, 0.0, 0.0]",1
1.57E+18,303,1574069845,771703433,base_link,71000,229000,-359000,"[-1.0, 0.0, 0.0, 0.0, 0.0, 0.0, 0.0, 0.0, 0.0]",1
1.57E+18,304,1574069846,7428141,base_link,65000,228000,-357000,"[-1.0, 0.0, 0.0, 0.0, 0.0, 0.0, 0.0, 0.0, 0.0]",1
1.57E+18,305,1574069846,260544900,base_link,63000,219000,-366000,"[-1.0, 0.0, 0.0, 0.0, 0.0, 0.0, 0.0, 0.0, 0.0]",1
1.57E+18,306,1574069846,525874187,base_link,57000,221000,-359000,"[-1.0, 0.0, 0.0, 0.0, 0.0, 0.0, 0.0, 0.0, 0.0]",1
1.57E+18,307,1574069846,753517620,base_link,44000,238000,-374000,"[-1.0, 0.0, 0.0, 0.0, 0.0, 0.0, 0.0, 0.0, 0.0]",1
1.57E+18,308,1574069847,867713,base_link,24000,236000,-365000,"[-1.0, 0.0, 0.0, 0.0, 0.0, 0.0, 0.0, 0.0, 0.0]",1
1.57E+18,309,1574069847,236598667,base_link,16000,235000,-367000,"[-1.0, 0.0, 0.0, 0.0, 0.0, 0.0, 0.0, 0.0, 0.0]",1
1.57E+18,310,1574069847,478337912,base_link,39000,229000,-372000,"[-1.0, 0.0, 0.0, 0.0, 0.0, 0.0, 0.0, 0.0, 0.0]",1
1.57E+18,311,1574069847,712403809,base_link,20000,227000,-374000,"[-1.0, 0.0, 0.0, 0.0, 0.0, 0.0, 0.0, 0.0, 0.0]",1
1.57E+18,312,1574069847,967810086,base_link,29000,219000,-382000,"[-1.0, 0.0, 0.0, 0.0, 0.0, 0.0, 0.0, 0.0, 0.0]",1
1.57E+18,313,1574069848,199214516,base_link,27000,223000,-373000,"[-1.0, 0.0, 0.0, 0.0, 0.0, 0.0, 0.0, 0.0, 0.0]",1
1.57E+18,314,1574069848,432697950,base_link,26000,226000,-372000,"[-1.0, 0.0, 0.0, 0.0, 0.0, 0.0, 0.0, 0.0, 0.0]",1
1.57E+18,315,1574069848,679579390,base_link,34000,224000,-372000,"[-1.0, 0.0, 0.0, 0.0, 0.0, 0.0, 0.0, 0.0, 0.0]",1
1.57E+18,316,1574069848,922453742,base_link,40000,227000,-364000,"[-1.0, 0.0, 0.0, 0.0, 0.0, 0.0, 0.0, 0.0, 0.0]",1
1.57E+18,317,1574069849,150050332,base_link,41000,226000,-358000,"[-1.0, 0.0, 0.0, 0.0, 0.0, 0.0, 0.0, 0.0, 0.0]",1
1.57E+18,318,1574069849,401386617,base_link,41000,228000,-363000,"[-1.0, 0.0, 0.0, 0.0, 0.0, 0.0, 0.0, 0.0, 0.0]",1
1.57E+18,319,1574069849,652287072,base_link,47000,226000,-369000,"[-1.0, 0.0, 0.0, 0.0, 0.0, 0.0, 0.0, 0.0, 0.0]",1
1.57E+18,320,1574069849,884749230,base_link,38000,227000,-358000,"[-1.0, 0.0, 0.0, 0.0, 0.0, 0.0, 0.0, 0.0, 0.0]",1
1.57E+18,321,1574069850,109746659,base_link,42000,227000,-363000,"[-1.0, 0.0, 0.0, 0.0, 0.0, 0.0, 0.0, 0.0, 0.0]",1
1.57E+18,322,1574069850,353248319,base_link,44000,224000,-362000,"[-1.0, 0.0, 0.0, 0.0, 0.0, 0.0, 0.0, 0.0, 0.0]",1
1.57E+18,323,1574069850,604823571,base_link,49000,228000,-364000,"[-1.0, 0.0, 0.0, 0.0, 0.0, 0.0, 0.0, 0.0, 0.0]",1
1.57E+18,324,1574069850,831178271,base_link,46000,224000,-370000,"[-1.0, 0.0, 0.0, 0.0, 0.0, 0.0, 0.0, 0.0, 0.0]",1
1.57E+18,325,1574069851,79754426,base_link,43000,225000,-361000,"[-1.0, 0.0, 0.0, 0.0, 0.0, 0.0, 0.0, 0.0, 0.0]",1
1.57E+18,326,1574069851,309181159,base_link,44000,225000,-366000,"[-1.0, 0.0, 0.0, 0.0, 0.0, 0.0, 0.0, 0.0, 0.0]",1
1.57E+18,327,1574069851,558953423,base_link,51000,223000,-366000,"[-1.0, 0.0, 0.0, 0.0, 0.0, 0.0, 0.0, 0.0, 0.0]",1
1.57E+18,328,1574069851,800618715,base_link,52000,224000,-370000,"[-1.0, 0.0, 0.0, 0.0, 0.0, 0.0, 0.0, 0.0, 0.0]",1
1.57E+18,329,1574069852,31816262,base_link,41000,224000,-364000,"[-1.0, 0.0, 0.0, 0.0, 0.0, 0.0, 0.0, 0.0, 0.0]",1
1.57E+18,330,1574069852,283072559,base_link,43000,223000,-365000,"[-1.0, 0.0, 0.0, 0.0, 0.0, 0.0, 0.0, 0.0, 0.0]",1
1.57E+18,331,1574069852,511420910,base_link,46000,226000,-372000,"[-1.0, 0.0, 0.0, 0.0, 0.0, 0.0, 0.0, 0.0, 0.0]",1
1.57E+18,332,1574069852,765723485,base_link,47000,228000,-371000,"[-1.0, 0.0, 0.0, 0.0, 0.0, 0.0, 0.0, 0.0, 0.0]",1
1.57E+18,333,1574069852,998869141,base_link,49000,226000,-371000,"[-1.0, 0.0, 0.0, 0.0, 0.0, 0.0, 0.0, 0.0, 0.0]",1
1.57E+18,334,1574069853,232272763,base_link,45000,223000,-364000,"[-1.0, 0.0, 0.0, 0.0, 0.0, 0.0, 0.0, 0.0, 0.0]",1
1.57E+18,335,1574069853,479154897,base_link,49000,223000,-371000,"[-1.0, 0.0, 0.0, 0.0, 0.0, 0.0, 0.0, 0.0, 0.0]",1
1.57E+18,336,1574069853,719816557,base_link,49000,226000,-366000,"[-1.0, 0.0, 0.0, 0.0, 0.0, 0.0, 0.0, 0.0, 0.0]",1
1.57E+18,337,1574069853,971857831,base_link,47000,222000,-371000,"[-1.0, 0.0, 0.0, 0.0, 0.0, 0.0, 0.0, 0.0, 0.0]",1
1.57E+18,338,1574069854,200049023,base_link,44000,225000,-369000,"[-1.0, 0.0, 0.0, 0.0, 0.0, 0.0, 0.0, 0.0, 0.0]",1
1.57E+18,339,1574069854,436658437,base_link,48000,222000,-361000,"[-1.0, 0.0, 0.0, 0.0, 0.0, 0.0, 0.0, 0.0, 0.0]",1
1.57E+18,340,1574069854,679295385,base_link,50000,223000,-367000,"[-1.0, 0.0, 0.0, 0.0, 0.0, 0.0, 0.0, 0.0, 0.0]",1
1.57E+18,341,1574069854,912903770,base_link,49000,227000,-365000,"[-1.0, 0.0, 0.0, 0.0, 0.0, 0.0, 0.0, 0.0, 0.0]",1
1.57E+18,342,1574069855,150477780,base_link,44000,223000,-366000,"[-1.0, 0.0, 0.0, 0.0, 0.0, 0.0, 0.0, 0.0, 0.0]",1
1.57E+18,343,1574069855,404428186,base_link,44000,230000,-360000,"[-1.0, 0.0, 0.0, 0.0, 0.0, 0.0, 0.0, 0.0, 0.0]",1
1.57E+18,344,1574069855,632696354,base_link,51000,224000,-368000,"[-1.0, 0.0, 0.0, 0.0, 0.0, 0.0, 0.0, 0.0, 0.0]",1
1.57E+18,345,1574069855,879693204,base_link,50000,226000,-367000,"[-1.0, 0.0, 0.0, 0.0, 0.0, 0.0, 0.0, 0.0, 0.0]",1
1.57E+18,346,1574069856,120034537,base_link,48000,227000,-358000,"[-1.0, 0.0, 0.0, 0.0, 0.0, 0.0, 0.0, 0.0, 0.0]",1
1.57E+18,347,1574069856,358829900,base_link,41000,238000,-366000,"[-1.0, 0.0, 0.0, 0.0, 0.0, 0.0, 0.0, 0.0, 0.0]",1
1.57E+18,348,1574069856,592251121,base_link,49000,225000,-367000,"[-1.0, 0.0, 0.0, 0.0, 0.0, 0.0, 0.0, 0.0, 0.0]",1
1.57E+18,349,1574069856,839094897,base_link,46000,226000,-369000,"[-1.0, 0.0, 0.0, 0.0, 0.0, 0.0, 0.0, 0.0, 0.0]",1
1.57E+18,350,1574069857,79731627,base_link,39000,226000,-362000,"[-1.0, 0.0, 0.0, 0.0, 0.0, 0.0, 0.0, 0.0, 0.0]",1
1.57E+18,351,1574069857,319498688,base_link,40000,221000,-367000,"[-1.0, 0.0, 0.0, 0.0, 0.0, 0.0, 0.0, 0.0, 0.0]",1
1.57E+18,352,1574069857,557250212,base_link,48000,222000,-366000,"[-1.0, 0.0, 0.0, 0.0, 0.0, 0.0, 0.0, 0.0, 0.0]",1
1.57E+18,353,1574069857,797165258,base_link,50000,220000,-370000,"[-1.0, 0.0, 0.0, 0.0, 0.0, 0.0, 0.0, 0.0, 0.0]",1
1.57E+18,354,1574069858,44387766,base_link,42000,223000,-364000,"[-1.0, 0.0, 0.0, 0.0, 0.0, 0.0, 0.0, 0.0, 0.0]",1
1.57E+18,355,1574069858,279184619,base_link,44000,227000,-360000,"[-1.0, 0.0, 0.0, 0.0, 0.0, 0.0, 0.0, 0.0, 0.0]",1
1.57E+18,356,1574069858,522939505,base_link,49000,225000,-365000,"[-1.0, 0.0, 0.0, 0.0, 0.0, 0.0, 0.0, 0.0, 0.0]",1
1.57E+18,357,1574069858,759460150,base_link,48000,224000,-368000,"[-1.0, 0.0, 0.0, 0.0, 0.0, 0.0, 0.0, 0.0, 0.0]",1
1.57E+18,358,1574069859,39011,base_link,46000,219000,-359000,"[-1.0, 0.0, 0.0, 0.0, 0.0, 0.0, 0.0, 0.0, 0.0]",1
1.57E+18,359,1574069859,233130495,base_link,41000,224000,-365000,"[-1.0, 0.0, 0.0, 0.0, 0.0, 0.0, 0.0, 0.0, 0.0]",1
1.57E+18,360,1574069859,476840219,base_link,39000,225000,-365000,"[-1.0, 0.0, 0.0, 0.0, 0.0, 0.0, 0.0, 0.0, 0.0]",1
1.57E+18,361,1574069859,709382443,base_link,44000,229000,-363000,"[-1.0, 0.0, 0.0, 0.0, 0.0, 0.0, 0.0, 0.0, 0.0]",1
1.57E+18,362,1574069859,949144769,base_link,44000,228000,-372000,"[-1.0, 0.0, 0.0, 0.0, 0.0, 0.0, 0.0, 0.0, 0.0]",1
1.57E+18,363,1574069860,195332930,base_link,44000,226000,-366000,"[-1.0, 0.0, 0.0, 0.0, 0.0, 0.0, 0.0, 0.0, 0.0]",1
1.57E+18,364,1574069860,439091425,base_link,40000,223000,-364000,"[-1.0, 0.0, 0.0, 0.0, 0.0, 0.0, 0.0, 0.0, 0.0]",1
1.57E+18,365,1574069860,673761409,base_link,50000,224000,-367000,"[-1.0, 0.0, 0.0, 0.0, 0.0, 0.0, 0.0, 0.0, 0.0]",1
1.57E+18,366,1574069860,909941849,base_link,49000,223000,-368000,"[-1.0, 0.0, 0.0, 0.0, 0.0, 0.0, 0.0, 0.0, 0.0]",1
1.57E+18,367,1574069861,165242528,base_link,44000,225000,-363000,"[-1.0, 0.0, 0.0, 0.0, 0.0, 0.0, 0.0, 0.0, 0.0]",1
1.57E+18,368,1574069861,395642095,base_link,40000,224000,-365000,"[-1.0, 0.0, 0.0, 0.0, 0.0, 0.0, 0.0, 0.0, 0.0]",1
1.57E+18,369,1574069861,630437609,base_link,46000,225000,-365000,"[-1.0, 0.0, 0.0, 0.0, 0.0, 0.0, 0.0, 0.0, 0.0]",1
1.57E+18,370,1574069861,878907820,base_link,45000,219000,-367000,"[-1.0, 0.0, 0.0, 0.0, 0.0, 0.0, 0.0, 0.0, 0.0]",1
1.57E+18,371,1574069862,113324971,base_link,45000,223000,-361000,"[-1.0, 0.0, 0.0, 0.0, 0.0, 0.0, 0.0, 0.0, 0.0]",1
1.57E+18,372,1574069862,352707549,base_link,45000,224000,-361000,"[-1.0, 0.0, 0.0, 0.0, 0.0, 0.0, 0.0, 0.0, 0.0]",1
1.57E+18,373,1574069862,612198450,base_link,52000,221000,-364000,"[-1.0, 0.0, 0.0, 0.0, 0.0, 0.0, 0.0, 0.0, 0.0]",1
1.57E+18,374,1574069862,838284762,base_link,50000,224000,-368000,"[-1.0, 0.0, 0.0, 0.0, 0.0, 0.0, 0.0, 0.0, 0.0]",1
1.57E+18,375,1574069863,76187768,base_link,43000,227000,-363000,"[-1.0, 0.0, 0.0, 0.0, 0.0, 0.0, 0.0, 0.0, 0.0]",1
1.57E+18,376,1574069863,312786643,base_link,43000,223000,-363000,"[-1.0, 0.0, 0.0, 0.0, 0.0, 0.0, 0.0, 0.0, 0.0]",1
1.57E+18,377,1574069863,548874480,base_link,49000,228000,-369000,"[-1.0, 0.0, 0.0, 0.0, 0.0, 0.0, 0.0, 0.0, 0.0]",1
1.57E+18,378,1574069863,798938042,base_link,47000,224000,-367000,"[-1.0, 0.0, 0.0, 0.0, 0.0, 0.0, 0.0, 0.0, 0.0]",1
1.57E+18,379,1574069864,39578565,base_link,46000,223000,-358000,"[-1.0, 0.0, 0.0, 0.0, 0.0, 0.0, 0.0, 0.0, 0.0]",1
1.57E+18,380,1574069864,281306144,base_link,41000,226000,-358000,"[-1.0, 0.0, 0.0, 0.0, 0.0, 0.0, 0.0, 0.0, 0.0]",1
1.57E+18,381,1574069864,523063388,base_link,48000,225000,-370000,"[-1.0, 0.0, 0.0, 0.0, 0.0, 0.0, 0.0, 0.0, 0.0]",1
1.57E+18,382,1574069864,758590315,base_link,46000,223000,-369000,"[-1.0, 0.0, 0.0, 0.0, 0.0, 0.0, 0.0, 0.0, 0.0]",1
1.57E+18,383,1574069864,999206923,base_link,37000,226000,-359000,"[-1.0, 0.0, 0.0, 0.0, 0.0, 0.0, 0.0, 0.0, 0.0]",1
1.57E+18,663,1574068125,40421056,base_link,175000,-286000,-323000,"[-1.0, 0.0, 0.0, 0.0, 0.0, 0.0, 0.0, 0.0, 0.0]",0
1.57E+18,664,1574068125,294114118,base_link,203000,-292000,-299000,"[-1.0, 0.0, 0.0, 0.0, 0.0, 0.0, 0.0, 0.0, 0.0]",0
1.57E+18,665,1574068125,530567277,base_link,146000,-5000,-588000,"[-1.0, 0.0, 0.0, 0.0, 0.0, 0.0, 0.0, 0.0, 0.0]",0
1.57E+18,666,1574068125,760916628,base_link,233000,-69000,-464000,"[-1.0, 0.0, 0.0, 0.0, 0.0, 0.0, 0.0, 0.0, 0.0]",0
1.57E+18,667,1574068126,2559090,base_link,298000,-92000,-344000,"[-1.0, 0.0, 0.0, 0.0, 0.0, 0.0, 0.0, 0.0, 0.0]",0
1.57E+18,668,1574068126,256066774,base_link,303000,-61000,-331000,"[-1.0, 0.0, 0.0, 0.0, 0.0, 0.0, 0.0, 0.0, 0.0]",0
1.57E+18,669,1574068126,518098503,base_link,303000,-41000,-331000,"[-1.0, 0.0, 0.0, 0.0, 0.0, 0.0, 0.0, 0.0, 0.0]",0
1.57E+18,670,1574068126,774309054,base_link,312000,-52000,-325000,"[-1.0, 0.0, 0.0, 0.0, 0.0, 0.0, 0.0, 0.0, 0.0]",0
1.57E+18,671,1574068126,978154775,base_link,308000,-45000,-327000,"[-1.0, 0.0, 0.0, 0.0, 0.0, 0.0, 0.0, 0.0, 0.0]",0
1.57E+18,672,1574068127,215717775,base_link,317000,-43000,-323000,"[-1.0, 0.0, 0.0, 0.0, 0.0, 0.0, 0.0, 0.0, 0.0]",0
1.57E+18,673,1574068127,440765135,base_link,311000,-43000,-323000,"[-1.0, 0.0, 0.0, 0.0, 0.0, 0.0, 0.0, 0.0, 0.0]",0
1.57E+18,674,1574068127,687032701,base_link,313000,-46000,-327000,"[-1.0, 0.0, 0.0, 0.0, 0.0, 0.0, 0.0, 0.0, 0.0]",0
1.57E+18,675,1574068127,919952229,base_link,316000,-47000,-325000,"[-1.0, 0.0, 0.0, 0.0, 0.0, 0.0, 0.0, 0.0, 0.0]",0
1.57E+18,676,1574068128,165384849,base_link,318000,-49000,-323000,"[-1.0, 0.0, 0.0, 0.0, 0.0, 0.0, 0.0, 0.0, 0.0]",0
1.57E+18,677,1574068128,408410084,base_link,317000,-46000,-329000,"[-1.0, 0.0, 0.0, 0.0, 0.0, 0.0, 0.0, 0.0, 0.0]",0
1.57E+18,678,1574068128,679759085,base_link,315000,-46000,-325000,"[-1.0, 0.0, 0.0, 0.0, 0.0, 0.0, 0.0, 0.0, 0.0]",0
1.57E+18,679,1574068128,885480313,base_link,313000,-51000,-326000,"[-1.0, 0.0, 0.0, 0.0, 0.0, 0.0, 0.0, 0.0, 0.0]",0
1.57E+18,680,1574068129,127950554,base_link,318000,-49000,-318000,"[-1.0, 0.0, 0.0, 0.0, 0.0, 0.0, 0.0, 0.0, 0.0]",0
1.57E+18,681,1574068129,367265173,base_link,325000,-52000,-310000,"[-1.0, 0.0, 0.0, 0.0, 0.0, 0.0, 0.0, 0.0, 0.0]",0
1.57E+18,682,1574068129,617011268,base_link,335000,-64000,-282000,"[-1.0, 0.0, 0.0, 0.0, 0.0, 0.0, 0.0, 0.0, 0.0]",0
1.57E+18,683,1574068129,839675065,base_link,370000,-47000,-265000,"[-1.0, 0.0, 0.0, 0.0, 0.0, 0.0, 0.0, 0.0, 0.0]",0
1.57E+18,684,1574068130,84936089,base_link,400000,-36000,-234000,"[-1.0, 0.0, 0.0, 0.0, 0.0, 0.0, 0.0, 0.0, 0.0]",0
1.57E+18,685,1574068130,331354866,base_link,432000,8000,-172000,"[-1.0, 0.0, 0.0, 0.0, 0.0, 0.0, 0.0, 0.0, 0.0]",0
1.57E+18,686,1574068130,602329786,base_link,463000,9000,-21000,"[-1.0, 0.0, 0.0, 0.0, 0.0, 0.0, 0.0, 0.0, 0.0]",0
1.57E+18,687,1574068130,803490283,base_link,343000,136000,118000,"[-1.0, 0.0, 0.0, 0.0, 0.0, 0.0, 0.0, 0.0, 0.0]",0
1.57E+18,688,1574068131,40197822,base_link,174000,-119000,589000,"[-1.0, 0.0, 0.0, 0.0, 0.0, 0.0, 0.0, 0.0, 0.0]",0
1.57E+18,689,1574068131,292125621,base_link,-250000,115000,328000,"[-1.0, 0.0, 0.0, 0.0, 0.0, 0.0, 0.0, 0.0, 0.0]",0
1.57E+18,690,1574068131,519447516,base_link,9000,-767000,1181000,"[-1.0, 0.0, 0.0, 0.0, 0.0, 0.0, 0.0, 0.0, 0.0]",0
1.57E+18,691,1574068131,765142308,base_link,-207000,-263000,537000,"[-1.0, 0.0, 0.0, 0.0, 0.0, 0.0, 0.0, 0.0, 0.0]",0
1.57E+18,692,1574068132,19798547,base_link,-187000,-123000,417000,"[-1.0, 0.0, 0.0, 0.0, 0.0, 0.0, 0.0, 0.0, 0.0]",0
1.57E+18,693,1574068132,270530888,base_link,-186000,179000,164000,"[-1.0, 0.0, 0.0, 0.0, 0.0, 0.0, 0.0, 0.0, 0.0]",0
1.57E+18,694,1574068132,510125898,base_link,-158000,-42000,442000,"[-1.0, 0.0, 0.0, 0.0, 0.0, 0.0, 0.0, 0.0, 0.0]",0
1.57E+18,695,1574068132,721037801,base_link,-67000,-314000,752000,"[-1.0, 0.0, 0.0, 0.0, 0.0, 0.0, 0.0, 0.0, 0.0]",0
1.57E+18,696,1574068132,963760459,base_link,-307000,161000,345000,"[-1.0, 0.0, 0.0, 0.0, 0.0, 0.0, 0.0, 0.0, 0.0]",0
1.57E+18,697,1574068133,220186680,base_link,-145000,129000,488000,"[-1.0, 0.0, 0.0, 0.0, 0.0, 0.0, 0.0, 0.0, 0.0]",0
1.57E+18,698,1574068133,444617331,base_link,7000,170000,474000,"[-1.0, 0.0, 0.0, 0.0, 0.0, 0.0, 0.0, 0.0, 0.0]",0
1.57E+18,699,1574068133,691278199,base_link,-6000,376000,277000,"[-1.0, 0.0, 0.0, 0.0, 0.0, 0.0, 0.0, 0.0, 0.0]",0
1.57E+18,700,1574068133,927337208,base_link,57000,170000,478000,"[-1.0, 0.0, 0.0, 0.0, 0.0, 0.0, 0.0, 0.0, 0.0]",0
1.57E+18,701,1574068134,176897973,base_link,181000,-265000,930000,"[-1.0, 0.0, 0.0, 0.0, 0.0, 0.0, 0.0, 0.0, 0.0]",0
1.57E+18,702,1574068134,434642116,base_link,36000,203000,410000,"[-1.0, 0.0, 0.0, 0.0, 0.0, 0.0, 0.0, 0.0, 0.0]",0
1.57E+18,703,1574068134,704817505,base_link,61000,311000,350000,"[-1.0, 0.0, 0.0, 0.0, 0.0, 0.0, 0.0, 0.0, 0.0]",0
1.57E+18,704,1574068134,885049618,base_link,-199000,429000,139000,"[-1.0, 0.0, 0.0, 0.0, 0.0, 0.0, 0.0, 0.0, 0.0]",0
