rosbagTimestamp,seq,secs,nsecs,frame_id,child_frame_id,xp,yp,zp,xo,yo,zo,wo,orientation_covariance,xl,yl,zl,xa,ya,za,angular_covariance,normality
1.57E+18,53,1574069785,712273355,map,base_link,4.528345902,0.344268124,-0.863,-0.007621185,-0.004687104,-0.234685299,-0.972030225,"[0.722500040531159, 0.0, 0.0, 0.0, 0.0, 0.0, 0.0, 0.722500040531159, 0.0, 0.0, 0.0, 0.0, 0.0, 0.0, 2.016399878120424, 0.0, 0.0, 0.0, 0.0, 0.0, 0.0, 99999.0, 0.0, 0.0, 0.0, 0.0, 0.0, 0.0, 99999.0, 0.0, 0.0, 0.0, 0.0, 0.0, 0.0, 99999.0]",0.14,0.07,0.06,0,0,0,"[-1.0, 0.0, 0.0, 0.0, 0.0, 0.0, 0.0, 0.0, 0.0, 0.0, 0.0, 0.0, 0.0, 0.0, 0.0, 0.0, 0.0, 0.0, 0.0, 0.0, 0.0, 0.0, 0.0, 0.0, 0.0, 0.0, 0.0, 0.0, 0.0, 0.0, 0.0, 0.0, 0.0, 0.0, 0.0, 0.0]",1
1.57E+18,54,1574069785,951754837,map,base_link,4.553833797,0.288741242,-0.881,-0.007844751,-0.004502887,-0.234648046,-0.972038311,"[0.722500040531159, 0.0, 0.0, 0.0, 0.0, 0.0, 0.0, 0.722500040531159, 0.0, 0.0, 0.0, 0.0, 0.0, 0.0, 2.016399878120424, 0.0, 0.0, 0.0, 0.0, 0.0, 0.0, 99999.0, 0.0, 0.0, 0.0, 0.0, 0.0, 0.0, 99999.0, 0.0, 0.0, 0.0, 0.0, 0.0, 0.0, 99999.0]",0.12,0.03,0.06,0,0,0,"[-1.0, 0.0, 0.0, 0.0, 0.0, 0.0, 0.0, 0.0, 0.0, 0.0, 0.0, 0.0, 0.0, 0.0, 0.0, 0.0, 0.0, 0.0, 0.0, 0.0, 0.0, 0.0, 0.0, 0.0, 0.0, 0.0, 0.0, 0.0, 0.0, 0.0, 0.0, 0.0, 0.0, 0.0, 0.0, 0.0]",1
1.57E+18,55,1574069786,192365652,map,base_link,4.570825761,0.199898218,-0.897,-0.008120401,-0.004272798,-0.234578753,-0.972053811,"[0.722500040531159, 0.0, 0.0, 0.0, 0.0, 0.0, 0.0, 0.722500040531159, 0.0, 0.0, 0.0, 0.0, 0.0, 0.0, 2.016399878120424, 0.0, 0.0, 0.0, 0.0, 0.0, 0.0, 99999.0, 0.0, 0.0, 0.0, 0.0, 0.0, 0.0, 99999.0, 0.0, 0.0, 0.0, 0.0, 0.0, 0.0, 99999.0]",0.11,0,0.06,0,0,0,"[-1.0, 0.0, 0.0, 0.0, 0.0, 0.0, 0.0, 0.0, 0.0, 0.0, 0.0, 0.0, 0.0, 0.0, 0.0, 0.0, 0.0, 0.0, 0.0, 0.0, 0.0, 0.0, 0.0, 0.0, 0.0, 0.0, 0.0, 0.0, 0.0, 0.0, 0.0, 0.0, 0.0, 0.0, 0.0, 0.0]",1
1.57E+18,56,1574069786,432829361,map,base_link,4.57932174,0.155476705,-0.908,-0.008404232,-0.004010122,-0.234530372,-0.972064191,"[0.722500040531159, 0.0, 0.0, 0.0, 0.0, 0.0, 0.0, 0.722500040531159, 0.0, 0.0, 0.0, 0.0, 0.0, 0.0, 2.016399878120424, 0.0, 0.0, 0.0, 0.0, 0.0, 0.0, 99999.0, 0.0, 0.0, 0.0, 0.0, 0.0, 0.0, 99999.0, 0.0, 0.0, 0.0, 0.0, 0.0, 0.0, 99999.0]",0.09,-0.01,0.06,0,0,0,"[-1.0, 0.0, 0.0, 0.0, 0.0, 0.0, 0.0, 0.0, 0.0, 0.0, 0.0, 0.0, 0.0, 0.0, 0.0, 0.0, 0.0, 0.0, 0.0, 0.0, 0.0, 0.0, 0.0, 0.0, 0.0, 0.0, 0.0, 0.0, 0.0, 0.0, 0.0, 0.0, 0.0, 0.0, 0.0, 0.0]",1
1.57E+18,57,1574069786,666516517,map,base_link,4.604809609,0.155476721,-0.916,-0.008488704,-0.003894096,-0.234552425,-0.972058608,"[0.722500040531159, 0.0, 0.0, 0.0, 0.0, 0.0, 0.0, 0.722500040531159, 0.0, 0.0, 0.0, 0.0, 0.0, 0.0, 2.016399878120424, 0.0, 0.0, 0.0, 0.0, 0.0, 0.0, 99999.0, 0.0, 0.0, 0.0, 0.0, 0.0, 0.0, 99999.0, 0.0, 0.0, 0.0, 0.0, 0.0, 0.0, 99999.0]",0.08,-0.01,0.06,0,0,0,"[-1.0, 0.0, 0.0, 0.0, 0.0, 0.0, 0.0, 0.0, 0.0, 0.0, 0.0, 0.0, 0.0, 0.0, 0.0, 0.0, 0.0, 0.0, 0.0, 0.0, 0.0, 0.0, 0.0, 0.0, 0.0, 0.0, 0.0, 0.0, 0.0, 0.0, 0.0, 0.0, 0.0, 0.0, 0.0, 0.0]",1
1.57E+18,58,1574069786,912236939,map,base_link,4.63029747,0.155476736,-0.931,-0.008411635,-0.003831706,-0.234527381,-0.972065569,"[0.722500040531159, 0.0, 0.0, 0.0, 0.0, 0.0, 0.0, 0.722500040531159, 0.0, 0.0, 0.0, 0.0, 0.0, 0.0, 2.016399878120424, 0.0, 0.0, 0.0, 0.0, 0.0, 0.0, 99999.0, 0.0, 0.0, 0.0, 0.0, 0.0, 0.0, 99999.0, 0.0, 0.0, 0.0, 0.0, 0.0, 0.0, 99999.0]",0.07,0,0.07,0,0,0,"[-1.0, 0.0, 0.0, 0.0, 0.0, 0.0, 0.0, 0.0, 0.0, 0.0, 0.0, 0.0, 0.0, 0.0, 0.0, 0.0, 0.0, 0.0, 0.0, 0.0, 0.0, 0.0, 0.0, 0.0, 0.0, 0.0, 0.0, 0.0, 0.0, 0.0, 0.0, 0.0, 0.0, 0.0, 0.0, 0.0]",1
1.57E+18,59,1574069787,151945599,map,base_link,4.647289366,0.177687504,-0.947,-0.008259107,-0.003832091,-0.234504787,-0.972072326,"[0.9604000373840336, 0.0, 0.0, 0.0, 0.0, 0.0, 0.0, 0.9604000373840336, 0.0, 0.0, 0.0, 0.0, 0.0, 0.0, 4.326399682617193, 0.0, 0.0, 0.0, 0.0, 0.0, 0.0, 99999.0, 0.0, 0.0, 0.0, 0.0, 0.0, 0.0, 99999.0, 0.0, 0.0, 0.0, 0.0, 0.0, 0.0, 99999.0]",0.06,0,0.07,0,0,0,"[-1.0, 0.0, 0.0, 0.0, 0.0, 0.0, 0.0, 0.0, 0.0, 0.0, 0.0, 0.0, 0.0, 0.0, 0.0, 0.0, 0.0, 0.0, 0.0, 0.0, 0.0, 0.0, 0.0, 0.0, 0.0, 0.0, 0.0, 0.0, 0.0, 0.0, 0.0, 0.0, 0.0, 0.0, 0.0, 0.0]",1
1.57E+18,60,1574069787,392729551,map,base_link,4.664281276,0.166582135,-0.96,-0.008131954,-0.003787356,-0.234542564,-0.972064459,"[0.9604000373840336, 0.0, 0.0, 0.0, 0.0, 0.0, 0.0, 0.9604000373840336, 0.0, 0.0, 0.0, 0.0, 0.0, 0.0, 4.326399682617193, 0.0, 0.0, 0.0, 0.0, 0.0, 0.0, 99999.0, 0.0, 0.0, 0.0, 0.0, 0.0, 0.0, 99999.0, 0.0, 0.0, 0.0, 0.0, 0.0, 0.0, 99999.0]",0.05,0,0.08,0,0,0,"[-1.0, 0.0, 0.0, 0.0, 0.0, 0.0, 0.0, 0.0, 0.0, 0.0, 0.0, 0.0, 0.0, 0.0, 0.0, 0.0, 0.0, 0.0, 0.0, 0.0, 0.0, 0.0, 0.0, 0.0, 0.0, 0.0, 0.0, 0.0, 0.0, 0.0, 0.0, 0.0, 0.0, 0.0, 0.0, 0.0]",1
1.57E+18,61,1574069787,635570638,map,base_link,4.689769193,0.099949876,-0.966,-0.008166998,-0.003697888,-0.234511614,-0.972071977,"[0.9604000373840336, 0.0, 0.0, 0.0, 0.0, 0.0, 0.0, 0.9604000373840336, 0.0, 0.0, 0.0, 0.0, 0.0, 0.0, 4.326399682617193, 0.0, 0.0, 0.0, 0.0, 0.0, 0.0, 99999.0, 0.0, 0.0, 0.0, 0.0, 0.0, 0.0, 99999.0, 0.0, 0.0, 0.0, 0.0, 0.0, 0.0, 99999.0]",0.05,-0.02,0.07,0,0,0,"[-1.0, 0.0, 0.0, 0.0, 0.0, 0.0, 0.0, 0.0, 0.0, 0.0, 0.0, 0.0, 0.0, 0.0, 0.0, 0.0, 0.0, 0.0, 0.0, 0.0, 0.0, 0.0, 0.0, 0.0, 0.0, 0.0, 0.0, 0.0, 0.0, 0.0, 0.0, 0.0, 0.0, 0.0, 0.0, 0.0]",1
1.57E+18,62,1574069787,874802230,map,base_link,4.698265186,0.033317606,-0.972,-0.008385852,-0.003619899,-0.234486903,-0.972076368,"[0.9604000373840336, 0.0, 0.0, 0.0, 0.0, 0.0, 0.0, 0.9604000373840336, 0.0, 0.0, 0.0, 0.0, 0.0, 0.0, 4.326399682617193, 0.0, 0.0, 0.0, 0.0, 0.0, 0.0, 99999.0, 0.0, 0.0, 0.0, 0.0, 0.0, 0.0, 99999.0, 0.0, 0.0, 0.0, 0.0, 0.0, 0.0, 99999.0]",0.03,-0.05,0.07,0,0,0,"[-1.0, 0.0, 0.0, 0.0, 0.0, 0.0, 0.0, 0.0, 0.0, 0.0, 0.0, 0.0, 0.0, 0.0, 0.0, 0.0, 0.0, 0.0, 0.0, 0.0, 0.0, 0.0, 0.0, 0.0, 0.0, 0.0, 0.0, 0.0, 0.0, 0.0, 0.0, 0.0, 0.0, 0.0, 0.0, 0.0]",1
1.57E+18,63,1574069788,112376565,map,base_link,4.715257118,0.011106857,-0.978,-0.00854835,-0.003527536,-0.234472697,-0.972078719,"[0.9604000373840336, 0.0, 0.0, 0.0, 0.0, 0.0, 0.0, 0.9604000373840336, 0.0, 0.0, 0.0, 0.0, 0.0, 0.0, 4.326399682617193, 0.0, 0.0, 0.0, 0.0, 0.0, 0.0, 99999.0, 0.0, 0.0, 0.0, 0.0, 0.0, 0.0, 99999.0, 0.0, 0.0, 0.0, 0.0, 0.0, 0.0, 99999.0]",0.02,-0.05,0.07,0,0,0,"[-1.0, 0.0, 0.0, 0.0, 0.0, 0.0, 0.0, 0.0, 0.0, 0.0, 0.0, 0.0, 0.0, 0.0, 0.0, 0.0, 0.0, 0.0, 0.0, 0.0, 0.0, 0.0, 0.0, 0.0, 0.0, 0.0, 0.0, 0.0, 0.0, 0.0, 0.0, 0.0, 0.0, 0.0, 0.0, 0.0]",1
1.57E+18,64,1574069788,353414958,map,base_link,4.740744973,0.033317632,-0.981,-0.00849512,-0.003502702,-0.234469066,-0.972080152,"[0.9604000373840336, 0.0, 0.0, 0.0, 0.0, 0.0, 0.0, 0.9604000373840336, 0.0, 0.0, 0.0, 0.0, 0.0, 0.0, 4.326399682617193, 0.0, 0.0, 0.0, 0.0, 0.0, 0.0, 99999.0, 0.0, 0.0, 0.0, 0.0, 0.0, 0.0, 99999.0, 0.0, 0.0, 0.0, 0.0, 0.0, 0.0, 99999.0]",0.02,-0.03,0.07,0,0,0,"[-1.0, 0.0, 0.0, 0.0, 0.0, 0.0, 0.0, 0.0, 0.0, 0.0, 0.0, 0.0, 0.0, 0.0, 0.0, 0.0, 0.0, 0.0, 0.0, 0.0, 0.0, 0.0, 0.0, 0.0, 0.0, 0.0, 0.0, 0.0, 0.0, 0.0, 0.0, 0.0, 0.0, 0.0, 0.0, 0.0]",1
1.57E+18,65,1574069788,589586889,map,base_link,4.757736898,0.033317643,-0.979,-0.00826459,-0.003502308,-0.234504769,-0.972073528,"[0.9604000373840336, 0.0, 0.0, 0.0, 0.0, 0.0, 0.0, 0.9604000373840336, 0.0, 0.0, 0.0, 0.0, 0.0, 0.0, 4.326399682617193, 0.0, 0.0, 0.0, 0.0, 0.0, 0.0, 99999.0, 0.0, 0.0, 0.0, 0.0, 0.0, 0.0, 99999.0, 0.0, 0.0, 0.0, 0.0, 0.0, 0.0, 99999.0]",0.01,-0.03,0.07,0,0,0,"[-1.0, 0.0, 0.0, 0.0, 0.0, 0.0, 0.0, 0.0, 0.0, 0.0, 0.0, 0.0, 0.0, 0.0, 0.0, 0.0, 0.0, 0.0, 0.0, 0.0, 0.0, 0.0, 0.0, 0.0, 0.0, 0.0, 0.0, 0.0, 0.0, 0.0, 0.0, 0.0, 0.0, 0.0, 0.0, 0.0]",1
1.57E+18,66,1574069788,832214762,map,base_link,4.774728808,0.033317654,-0.986,-0.008123287,-0.003485709,-0.234479732,-0.972080818,"[0.9604000373840336, 0.0, 0.0, 0.0, 0.0, 0.0, 0.0, 0.9604000373840336, 0.0, 0.0, 0.0, 0.0, 0.0, 0.0, 4.326399682617193, 0.0, 0.0, 0.0, 0.0, 0.0, 0.0, 99999.0, 0.0, 0.0, 0.0, 0.0, 0.0, 0.0, 99999.0, 0.0, 0.0, 0.0, 0.0, 0.0, 0.0, 99999.0]",0,-0.02,0.07,0,0,0,"[-1.0, 0.0, 0.0, 0.0, 0.0, 0.0, 0.0, 0.0, 0.0, 0.0, 0.0, 0.0, 0.0, 0.0, 0.0, 0.0, 0.0, 0.0, 0.0, 0.0, 0.0, 0.0, 0.0, 0.0, 0.0, 0.0, 0.0, 0.0, 0.0, 0.0, 0.0, 0.0, 0.0, 0.0, 0.0, 0.0]",1
1.57E+18,67,1574069789,72036531,map,base_link,4.791720718,0.033317665,-0.995,-0.00802102,-0.003425721,-0.23441008,-0.972098679,"[0.9604000373840336, 0.0, 0.0, 0.0, 0.0, 0.0, 0.0, 0.9604000373840336, 0.0, 0.0, 0.0, 0.0, 0.0, 0.0, 4.326399682617193, 0.0, 0.0, 0.0, 0.0, 0.0, 0.0, 99999.0, 0.0, 0.0, 0.0, 0.0, 0.0, 0.0, 99999.0, 0.0, 0.0, 0.0, 0.0, 0.0, 0.0, 99999.0]",0,-0.02,0.07,0,0,0,"[-1.0, 0.0, 0.0, 0.0, 0.0, 0.0, 0.0, 0.0, 0.0, 0.0, 0.0, 0.0, 0.0, 0.0, 0.0, 0.0, 0.0, 0.0, 0.0, 0.0, 0.0, 0.0, 0.0, 0.0, 0.0, 0.0, 0.0, 0.0, 0.0, 0.0, 0.0, 0.0, 0.0, 0.0, 0.0, 0.0]",1
1.57E+18,68,1574069789,312591866,map,base_link,4.817208608,0.011106923,-0.995,-0.007939567,-0.003424572,-0.234367084,-0.972109719,"[0.9604000373840336, 0.0, 0.0, 0.0, 0.0, 0.0, 0.0, 0.9604000373840336, 0.0, 0.0, 0.0, 0.0, 0.0, 0.0, 4.326399682617193, 0.0, 0.0, 0.0, 0.0, 0.0, 0.0, 99999.0, 0.0, 0.0, 0.0, 0.0, 0.0, 0.0, 99999.0, 0.0, 0.0, 0.0, 0.0, 0.0, 0.0, 99999.0]",0,-0.02,0.07,0,0,0,"[-1.0, 0.0, 0.0, 0.0, 0.0, 0.0, 0.0, 0.0, 0.0, 0.0, 0.0, 0.0, 0.0, 0.0, 0.0, 0.0, 0.0, 0.0, 0.0, 0.0, 0.0, 0.0, 0.0, 0.0, 0.0, 0.0, 0.0, 0.0, 0.0, 0.0, 0.0, 0.0, 0.0, 0.0, 0.0, 0.0]",1
1.57E+18,69,1574069789,546171864,map,base_link,4.851192464,-0.022209193,-0.994,-0.007968465,-0.00342359,-0.234343993,-0.972115053,"[0.9604000373840336, 0.0, 0.0, 0.0, 0.0, 0.0, 0.0, 0.9604000373840336, 0.0, 0.0, 0.0, 0.0, 0.0, 0.0, 4.326399682617193, 0.0, 0.0, 0.0, 0.0, 0.0, 0.0, 99999.0, 0.0, 0.0, 0.0, 0.0, 0.0, 0.0, 99999.0, 0.0, 0.0, 0.0, 0.0, 0.0, 0.0, 99999.0]",0,-0.03,0.06,0,0,0,"[-1.0, 0.0, 0.0, 0.0, 0.0, 0.0, 0.0, 0.0, 0.0, 0.0, 0.0, 0.0, 0.0, 0.0, 0.0, 0.0, 0.0, 0.0, 0.0, 0.0, 0.0, 0.0, 0.0, 0.0, 0.0, 0.0, 0.0, 0.0, 0.0, 0.0, 0.0, 0.0, 0.0, 0.0, 0.0, 0.0]",1
1.57E+18,70,1574069789,791880089,map,base_link,4.876680348,-0.033314555,-0.998,-0.008035301,-0.003450387,-0.234341745,-0.97211495,"[0.722500040531159, 0.0, 0.0, 0.0, 0.0, 0.0, 0.0, 0.722500040531159, 0.0, 0.0, 0.0, 0.0, 0.0, 0.0, 2.016399878120424, 0.0, 0.0, 0.0, 0.0, 0.0, 0.0, 99999.0, 0.0, 0.0, 0.0, 0.0, 0.0, 0.0, 99999.0, 0.0, 0.0, 0.0, 0.0, 0.0, 0.0, 99999.0]",0,-0.03,0.06,0,0,0,"[-1.0, 0.0, 0.0, 0.0, 0.0, 0.0, 0.0, 0.0, 0.0, 0.0, 0.0, 0.0, 0.0, 0.0, 0.0, 0.0, 0.0, 0.0, 0.0, 0.0, 0.0, 0.0, 0.0, 0.0, 0.0, 0.0, 0.0, 0.0, 0.0, 0.0, 0.0, 0.0, 0.0, 0.0, 0.0, 0.0]",1
1.57E+18,71,1574069790,32167829,map,base_link,4.89367228,-0.055525302,-0.999,-0.008042063,-0.003512912,-0.234355293,-0.972111404,"[0.9604000373840336, 0.0, 0.0, 0.0, 0.0, 0.0, 0.0, 0.9604000373840336, 0.0, 0.0, 0.0, 0.0, 0.0, 0.0, 4.326399682617193, 0.0, 0.0, 0.0, 0.0, 0.0, 0.0, 99999.0, 0.0, 0.0, 0.0, 0.0, 0.0, 0.0, 99999.0, 0.0, 0.0, 0.0, 0.0, 0.0, 0.0, 99999.0]",0,-0.03,0.06,0,0,0,"[-1.0, 0.0, 0.0, 0.0, 0.0, 0.0, 0.0, 0.0, 0.0, 0.0, 0.0, 0.0, 0.0, 0.0, 0.0, 0.0, 0.0, 0.0, 0.0, 0.0, 0.0, 0.0, 0.0, 0.0, 0.0, 0.0, 0.0, 0.0, 0.0, 0.0, 0.0, 0.0, 0.0, 0.0, 0.0, 0.0]",1
1.57E+18,72,1574069790,272064333,map,base_link,4.910664234,-0.111052186,-0.997,-0.00805416,-0.003456654,-0.23428244,-0.972129066,"[0.722500040531159, 0.0, 0.0, 0.0, 0.0, 0.0, 0.0, 0.722500040531159, 0.0, 0.0, 0.0, 0.0, 0.0, 0.0, 2.016399878120424, 0.0, 0.0, 0.0, 0.0, 0.0, 0.0, 99999.0, 0.0, 0.0, 0.0, 0.0, 0.0, 0.0, 99999.0, 0.0, 0.0, 0.0, 0.0, 0.0, 0.0, 99999.0]",-0.01,-0.04,0.06,0,0,0,"[-1.0, 0.0, 0.0, 0.0, 0.0, 0.0, 0.0, 0.0, 0.0, 0.0, 0.0, 0.0, 0.0, 0.0, 0.0, 0.0, 0.0, 0.0, 0.0, 0.0, 0.0, 0.0, 0.0, 0.0, 0.0, 0.0, 0.0, 0.0, 0.0, 0.0, 0.0, 0.0, 0.0, 0.0, 0.0, 0.0]",1
1.57E+18,73,1574069790,511908836,map,base_link,4.944648077,-0.122157544,-0.997,-0.008077256,-0.003446936,-0.23423255,-0.972140931,"[0.722500040531159, 0.0, 0.0, 0.0, 0.0, 0.0, 0.0, 0.722500040531159, 0.0, 0.0, 0.0, 0.0, 0.0, 0.0, 2.016399878120424, 0.0, 0.0, 0.0, 0.0, 0.0, 0.0, 99999.0, 0.0, 0.0, 0.0, 0.0, 0.0, 0.0, 99999.0, 0.0, 0.0, 0.0, 0.0, 0.0, 0.0, 99999.0]",-0.01,-0.03,0.06,0,0,0,"[-1.0, 0.0, 0.0, 0.0, 0.0, 0.0, 0.0, 0.0, 0.0, 0.0, 0.0, 0.0, 0.0, 0.0, 0.0, 0.0, 0.0, 0.0, 0.0, 0.0, 0.0, 0.0, 0.0, 0.0, 0.0, 0.0, 0.0, 0.0, 0.0, 0.0, 0.0, 0.0, 0.0, 0.0, 0.0, 0.0]",1
1.57E+18,74,1574069790,751707260,map,base_link,4.961639994,-0.122157532,-0.997,-0.008009281,-0.003512245,-0.234238058,-0.972139932,"[0.722500040531159, 0.0, 0.0, 0.0, 0.0, 0.0, 0.0, 0.722500040531159, 0.0, 0.0, 0.0, 0.0, 0.0, 0.0, 2.016399878120424, 0.0, 0.0, 0.0, 0.0, 0.0, 0.0, 99999.0, 0.0, 0.0, 0.0, 0.0, 0.0, 0.0, 99999.0, 0.0, 0.0, 0.0, 0.0, 0.0, 0.0, 99999.0]",-0.01,-0.03,0.06,0,0,0,"[-1.0, 0.0, 0.0, 0.0, 0.0, 0.0, 0.0, 0.0, 0.0, 0.0, 0.0, 0.0, 0.0, 0.0, 0.0, 0.0, 0.0, 0.0, 0.0, 0.0, 0.0, 0.0, 0.0, 0.0, 0.0, 0.0, 0.0, 0.0, 0.0, 0.0, 0.0, 0.0, 0.0, 0.0, 0.0, 0.0]",1
1.57E+18,75,1574069790,992110298,map,base_link,4.978631905,-0.122157521,-1.003,-0.007947496,-0.003540848,-0.234230577,-0.972142138,"[0.9604000373840336, 0.0, 0.0, 0.0, 0.0, 0.0, 0.0, 0.9604000373840336, 0.0, 0.0, 0.0, 0.0, 0.0, 0.0, 4.326399682617193, 0.0, 0.0, 0.0, 0.0, 0.0, 0.0, 99999.0, 0.0, 0.0, 0.0, 0.0, 0.0, 0.0, 99999.0, 0.0, 0.0, 0.0, 0.0, 0.0, 0.0, 99999.0]",-0.01,-0.01,0.06,0,0,0,"[-1.0, 0.0, 0.0, 0.0, 0.0, 0.0, 0.0, 0.0, 0.0, 0.0, 0.0, 0.0, 0.0, 0.0, 0.0, 0.0, 0.0, 0.0, 0.0, 0.0, 0.0, 0.0, 0.0, 0.0, 0.0, 0.0, 0.0, 0.0, 0.0, 0.0, 0.0, 0.0, 0.0, 0.0, 0.0, 0.0]",1
1.57E+18,76,1574069791,230517411,map,base_link,4.987127856,-0.111052136,-1.008,-0.007813889,-0.003549396,-0.23421823,-0.972146165,"[0.9604000373840336, 0.0, 0.0, 0.0, 0.0, 0.0, 0.0, 0.9604000373840336, 0.0, 0.0, 0.0, 0.0, 0.0, 0.0, 4.326399682617193, 0.0, 0.0, 0.0, 0.0, 0.0, 0.0, 99999.0, 0.0, 0.0, 0.0, 0.0, 0.0, 0.0, 99999.0, 0.0, 0.0, 0.0, 0.0, 0.0, 0.0, 99999.0]",-0.02,0,0.06,0,0,0,"[-1.0, 0.0, 0.0, 0.0, 0.0, 0.0, 0.0, 0.0, 0.0, 0.0, 0.0, 0.0, 0.0, 0.0, 0.0, 0.0, 0.0, 0.0, 0.0, 0.0, 0.0, 0.0, 0.0, 0.0, 0.0, 0.0, 0.0, 0.0, 0.0, 0.0, 0.0, 0.0, 0.0, 0.0, 0.0, 0.0]",1
1.57E+18,77,1574069791,471115168,map,base_link,5.012615747,-0.133262878,-1.002,-0.007704499,-0.003548603,-0.234258032,-0.97213745,"[0.9604000373840336, 0.0, 0.0, 0.0, 0.0, 0.0, 0.0, 0.9604000373840336, 0.0, 0.0, 0.0, 0.0, 0.0, 0.0, 4.326399682617193, 0.0, 0.0, 0.0, 0.0, 0.0, 0.0, 99999.0, 0.0, 0.0, 0.0, 0.0, 0.0, 0.0, 99999.0, 0.0, 0.0, 0.0, 0.0, 0.0, 0.0, 99999.0]",-0.02,0,0.06,0,0,0,"[-1.0, 0.0, 0.0, 0.0, 0.0, 0.0, 0.0, 0.0, 0.0, 0.0, 0.0, 0.0, 0.0, 0.0, 0.0, 0.0, 0.0, 0.0, 0.0, 0.0, 0.0, 0.0, 0.0, 0.0, 0.0, 0.0, 0.0, 0.0, 0.0, 0.0, 0.0, 0.0, 0.0, 0.0, 0.0, 0.0]",1
1.57E+18,78,1574069791,709672779,map,base_link,5.038103654,-0.166578998,-0.997,-0.007727758,-0.003587985,-0.234247789,-0.97213959,"[0.9604000373840336, 0.0, 0.0, 0.0, 0.0, 0.0, 0.0, 0.9604000373840336, 0.0, 0.0, 0.0, 0.0, 0.0, 0.0, 4.326399682617193, 0.0, 0.0, 0.0, 0.0, 0.0, 0.0, 99999.0, 0.0, 0.0, 0.0, 0.0, 0.0, 0.0, 99999.0, 0.0, 0.0, 0.0, 0.0, 0.0, 0.0, 99999.0]",-0.02,-0.01,0.06,0,0,0,"[-1.0, 0.0, 0.0, 0.0, 0.0, 0.0, 0.0, 0.0, 0.0, 0.0, 0.0, 0.0, 0.0, 0.0, 0.0, 0.0, 0.0, 0.0, 0.0, 0.0, 0.0, 0.0, 0.0, 0.0, 0.0, 0.0, 0.0, 0.0, 0.0, 0.0, 0.0, 0.0, 0.0, 0.0, 0.0, 0.0]",1
1.57E+18,79,1574069791,951364561,map,base_link,5.063591561,-0.211000498,-0.996,-0.007770643,-0.003620704,-0.234299288,-0.972126716,"[0.9604000373840336, 0.0, 0.0, 0.0, 0.0, 0.0, 0.0, 0.9604000373840336, 0.0, 0.0, 0.0, 0.0, 0.0, 0.0, 4.326399682617193, 0.0, 0.0, 0.0, 0.0, 0.0, 0.0, 99999.0, 0.0, 0.0, 0.0, 0.0, 0.0, 0.0, 99999.0, 0.0, 0.0, 0.0, 0.0, 0.0, 0.0, 99999.0]",-0.02,-0.02,0.06,0,0,0,"[-1.0, 0.0, 0.0, 0.0, 0.0, 0.0, 0.0, 0.0, 0.0, 0.0, 0.0, 0.0, 0.0, 0.0, 0.0, 0.0, 0.0, 0.0, 0.0, 0.0, 0.0, 0.0, 0.0, 0.0, 0.0, 0.0, 0.0, 0.0, 0.0, 0.0, 0.0, 0.0, 0.0, 0.0, 0.0, 0.0]",1
1.57E+18,80,1574069792,191955628,map,base_link,5.089079476,-0.266527376,-0.996,-0.007876618,-0.003635751,-0.234295686,-0.972126675,"[0.9604000373840336, 0.0, 0.0, 0.0, 0.0, 0.0, 0.0, 0.9604000373840336, 0.0, 0.0, 0.0, 0.0, 0.0, 0.0, 4.326399682617193, 0.0, 0.0, 0.0, 0.0, 0.0, 0.0, 99999.0, 0.0, 0.0, 0.0, 0.0, 0.0, 0.0, 99999.0, 0.0, 0.0, 0.0, 0.0, 0.0, 0.0, 99999.0]",-0.02,-0.03,0.06,0,0,0,"[-1.0, 0.0, 0.0, 0.0, 0.0, 0.0, 0.0, 0.0, 0.0, 0.0, 0.0, 0.0, 0.0, 0.0, 0.0, 0.0, 0.0, 0.0, 0.0, 0.0, 0.0, 0.0, 0.0, 0.0, 0.0, 0.0, 0.0, 0.0, 0.0, 0.0, 0.0, 0.0, 0.0, 0.0, 0.0, 0.0]",1
1.57E+18,81,1574069792,429676806,map,base_link,5.114567391,-0.322054256,-0.993,-0.007945482,-0.003647924,-0.234294484,-0.972126358,"[0.9604000373840336, 0.0, 0.0, 0.0, 0.0, 0.0, 0.0, 0.9604000373840336, 0.0, 0.0, 0.0, 0.0, 0.0, 0.0, 4.326399682617193, 0.0, 0.0, 0.0, 0.0, 0.0, 0.0, 99999.0, 0.0, 0.0, 0.0, 0.0, 0.0, 0.0, 99999.0, 0.0, 0.0, 0.0, 0.0, 0.0, 0.0, 99999.0]",-0.02,-0.04,0.06,0,0,0,"[-1.0, 0.0, 0.0, 0.0, 0.0, 0.0, 0.0, 0.0, 0.0, 0.0, 0.0, 0.0, 0.0, 0.0, 0.0, 0.0, 0.0, 0.0, 0.0, 0.0, 0.0, 0.0, 0.0, 0.0, 0.0, 0.0, 0.0, 0.0, 0.0, 0.0, 0.0, 0.0, 0.0, 0.0, 0.0, 0.0]",1
1.57E+18,82,1574069792,670266654,map,base_link,5.131559355,-0.377581139,-0.984,-0.008005725,-0.003696257,-0.234350322,-0.972112222,"[0.9604000373840336, 0.0, 0.0, 0.0, 0.0, 0.0, 0.0, 0.9604000373840336, 0.0, 0.0, 0.0, 0.0, 0.0, 0.0, 4.326399682617193, 0.0, 0.0, 0.0, 0.0, 0.0, 0.0, 99999.0, 0.0, 0.0, 0.0, 0.0, 0.0, 0.0, 99999.0, 0.0, 0.0, 0.0, 0.0, 0.0, 0.0, 99999.0]",-0.02,-0.05,0.05,0,0,0,"[-1.0, 0.0, 0.0, 0.0, 0.0, 0.0, 0.0, 0.0, 0.0, 0.0, 0.0, 0.0, 0.0, 0.0, 0.0, 0.0, 0.0, 0.0, 0.0, 0.0, 0.0, 0.0, 0.0, 0.0, 0.0, 0.0, 0.0, 0.0, 0.0, 0.0, 0.0, 0.0, 0.0, 0.0, 0.0, 0.0]",1
1.57E+18,83,1574069792,907640418,map,base_link,5.157047279,-0.433108019,-0.978,-0.008089708,-0.003724297,-0.234308032,-0.972121614,"[0.9604000373840336, 0.0, 0.0, 0.0, 0.0, 0.0, 0.0, 0.9604000373840336, 0.0, 0.0, 0.0, 0.0, 0.0, 0.0, 6.8120994524002185, 0.0, 0.0, 0.0, 0.0, 0.0, 0.0, 99999.0, 0.0, 0.0, 0.0, 0.0, 0.0, 0.0, 99999.0, 0.0, 0.0, 0.0, 0.0, 0.0, 0.0, 99999.0]",-0.02,-0.05,0.05,0,0,0,"[-1.0, 0.0, 0.0, 0.0, 0.0, 0.0, 0.0, 0.0, 0.0, 0.0, 0.0, 0.0, 0.0, 0.0, 0.0, 0.0, 0.0, 0.0, 0.0, 0.0, 0.0, 0.0, 0.0, 0.0, 0.0, 0.0, 0.0, 0.0, 0.0, 0.0, 0.0, 0.0, 0.0, 0.0, 0.0, 0.0]",1
1.57E+18,84,1574069793,151320966,map,base_link,5.174039235,-0.488634902,-0.973,-0.008133112,-0.00369442,-0.234315436,-0.972119581,"[0.9604000373840336, 0.0, 0.0, 0.0, 0.0, 0.0, 0.0, 0.9604000373840336, 0.0, 0.0, 0.0, 0.0, 0.0, 0.0, 4.326399682617193, 0.0, 0.0, 0.0, 0.0, 0.0, 0.0, 99999.0, 0.0, 0.0, 0.0, 0.0, 0.0, 0.0, 99999.0, 0.0, 0.0, 0.0, 0.0, 0.0, 0.0, 99999.0]",-0.02,-0.06,0.05,0,0,0,"[-1.0, 0.0, 0.0, 0.0, 0.0, 0.0, 0.0, 0.0, 0.0, 0.0, 0.0, 0.0, 0.0, 0.0, 0.0, 0.0, 0.0, 0.0, 0.0, 0.0, 0.0, 0.0, 0.0, 0.0, 0.0, 0.0, 0.0, 0.0, 0.0, 0.0, 0.0, 0.0, 0.0, 0.0, 0.0, 0.0]",1
1.57E+18,85,1574069793,390181189,map,base_link,5.199527137,-0.510845644,-0.964,-0.008110017,-0.003751356,-0.234292096,-0.972125182,"[0.9604000373840336, 0.0, 0.0, 0.0, 0.0, 0.0, 0.0, 0.9604000373840336, 0.0, 0.0, 0.0, 0.0, 0.0, 0.0, 4.326399682617193, 0.0, 0.0, 0.0, 0.0, 0.0, 0.0, 99999.0, 0.0, 0.0, 0.0, 0.0, 0.0, 0.0, 99999.0, 0.0, 0.0, 0.0, 0.0, 0.0, 0.0, 99999.0]",-0.02,-0.06,0.05,0,0,0,"[-1.0, 0.0, 0.0, 0.0, 0.0, 0.0, 0.0, 0.0, 0.0, 0.0, 0.0, 0.0, 0.0, 0.0, 0.0, 0.0, 0.0, 0.0, 0.0, 0.0, 0.0, 0.0, 0.0, 0.0, 0.0, 0.0, 0.0, 0.0, 0.0, 0.0, 0.0, 0.0, 0.0, 0.0, 0.0, 0.0]",1
1.57E+18,86,1574069793,630179269,map,base_link,5.233511014,-0.555267138,-0.952,-0.008083666,-0.003844833,-0.234283941,-0.972127001,"[0.9604000373840336, 0.0, 0.0, 0.0, 0.0, 0.0, 0.0, 0.9604000373840336, 0.0, 0.0, 0.0, 0.0, 0.0, 0.0, 4.326399682617193, 0.0, 0.0, 0.0, 0.0, 0.0, 0.0, 99999.0, 0.0, 0.0, 0.0, 0.0, 0.0, 0.0, 99999.0, 0.0, 0.0, 0.0, 0.0, 0.0, 0.0, 99999.0]",-0.01,-0.06,0.04,0,0,0,"[-1.0, 0.0, 0.0, 0.0, 0.0, 0.0, 0.0, 0.0, 0.0, 0.0, 0.0, 0.0, 0.0, 0.0, 0.0, 0.0, 0.0, 0.0, 0.0, 0.0, 0.0, 0.0, 0.0, 0.0, 0.0, 0.0, 0.0, 0.0, 0.0, 0.0, 0.0, 0.0, 0.0, 0.0, 0.0, 0.0]",1
1.57E+18,87,1574069793,910897648,map,base_link,5.258998986,-0.666320914,0.027,-0.008164958,-0.003881087,-0.234311678,-0.972119493,"[0.9604000373840336, 0.0, 0.0, 0.0, 0.0, 0.0, 0.0, 0.9604000373840336, 0.0, 0.0, 0.0, 0.0, 0.0, 0.0, 4.326399682617193, 0.0, 0.0, 0.0, 0.0, 0.0, 0.0, 99999.0, 0.0, 0.0, 0.0, 0.0, 0.0, 0.0, 99999.0, 0.0, 0.0, 0.0, 0.0, 0.0, 0.0, 99999.0]",-0.01,-0.09,0.04,0,0,0,"[-1.0, 0.0, 0.0, 0.0, 0.0, 0.0, 0.0, 0.0, 0.0, 0.0, 0.0, 0.0, 0.0, 0.0, 0.0, 0.0, 0.0, 0.0, 0.0, 0.0, 0.0, 0.0, 0.0, 0.0, 0.0, 0.0, 0.0, 0.0, 0.0, 0.0, 0.0, 0.0, 0.0, 0.0, 0.0, 0.0]",1
1.57E+18,88,1574069794,212079920,map,base_link,5.292982919,-0.777374685,0.047,-0.008385001,-0.003847072,-0.234311191,-0.972117872,"[0.9604000373840336, 0.0, 0.0, 0.0, 0.0, 0.0, 0.0, 0.9604000373840336, 0.0, 0.0, 0.0, 0.0, 0.0, 0.0, 4.326399682617193, 0.0, 0.0, 0.0, 0.0, 0.0, 0.0, 99999.0, 0.0, 0.0, 0.0, 0.0, 0.0, 0.0, 99999.0, 0.0, 0.0, 0.0, 0.0, 0.0, 0.0, 99999.0]",-0.01,-0.12,0.04,0,0,0,"[-1.0, 0.0, 0.0, 0.0, 0.0, 0.0, 0.0, 0.0, 0.0, 0.0, 0.0, 0.0, 0.0, 0.0, 0.0, 0.0, 0.0, 0.0, 0.0, 0.0, 0.0, 0.0, 0.0, 0.0, 0.0, 0.0, 0.0, 0.0, 0.0, 0.0, 0.0, 0.0, 0.0, 0.0, 0.0, 0.0]",1
1.57E+18,89,1574069794,523366130,map,base_link,5.326966822,-0.844006939,0.069,-0.008497321,-0.003824299,-0.234254974,-0.972130535,"[0.9604000373840336, 0.0, 0.0, 0.0, 0.0, 0.0, 0.0, 0.9604000373840336, 0.0, 0.0, 0.0, 0.0, 0.0, 0.0, 4.326399682617193, 0.0, 0.0, 0.0, 0.0, 0.0, 0.0, 99999.0, 0.0, 0.0, 0.0, 0.0, 0.0, 0.0, 99999.0, 0.0, 0.0, 0.0, 0.0, 0.0, 0.0, 99999.0]",-0.01,-0.12,0.03,0,0,0,"[-1.0, 0.0, 0.0, 0.0, 0.0, 0.0, 0.0, 0.0, 0.0, 0.0, 0.0, 0.0, 0.0, 0.0, 0.0, 0.0, 0.0, 0.0, 0.0, 0.0, 0.0, 0.0, 0.0, 0.0, 0.0, 0.0, 0.0, 0.0, 0.0, 0.0, 0.0, 0.0, 0.0, 0.0, 0.0, 0.0]",1
1.57E+18,90,1574069794,792667954,map,base_link,5.360950693,-0.877323055,0.079,-0.008387613,-0.003866774,-0.234259013,-0.972130347,"[0.9604000373840336, 0.0, 0.0, 0.0, 0.0, 0.0, 0.0, 0.9604000373840336, 0.0, 0.0, 0.0, 0.0, 0.0, 0.0, 4.326399682617193, 0.0, 0.0, 0.0, 0.0, 0.0, 0.0, 99999.0, 0.0, 0.0, 0.0, 0.0, 0.0, 0.0, 99999.0, 0.0, 0.0, 0.0, 0.0, 0.0, 0.0, 99999.0]",-0.01,-0.11,0.03,0,0,0,"[-1.0, 0.0, 0.0, 0.0, 0.0, 0.0, 0.0, 0.0, 0.0, 0.0, 0.0, 0.0, 0.0, 0.0, 0.0, 0.0, 0.0, 0.0, 0.0, 0.0, 0.0, 0.0, 0.0, 0.0, 0.0, 0.0, 0.0, 0.0, 0.0, 0.0, 0.0, 0.0, 0.0, 0.0, 0.0, 0.0]",1
1.57E+18,91,1574069795,72272256,map,base_link,5.403430517,-0.899533784,0.087,-0.008240441,-0.003939253,-0.234299279,-0.97212161,"[0.9604000373840336, 0.0, 0.0, 0.0, 0.0, 0.0, 0.0, 0.9604000373840336, 0.0, 0.0, 0.0, 0.0, 0.0, 0.0, 4.326399682617193, 0.0, 0.0, 0.0, 0.0, 0.0, 0.0, 99999.0, 0.0, 0.0, 0.0, 0.0, 0.0, 0.0, 99999.0, 0.0, 0.0, 0.0, 0.0, 0.0, 0.0, 99999.0]",0,-0.09,0.03,0,0,0,"[-1.0, 0.0, 0.0, 0.0, 0.0, 0.0, 0.0, 0.0, 0.0, 0.0, 0.0, 0.0, 0.0, 0.0, 0.0, 0.0, 0.0, 0.0, 0.0, 0.0, 0.0, 0.0, 0.0, 0.0, 0.0, 0.0, 0.0, 0.0, 0.0, 0.0, 0.0, 0.0, 0.0, 0.0, 0.0, 0.0]",1
1.57E+18,92,1574069795,352943931,map,base_link,5.454406294,-0.910639127,0.097,-0.00806705,-0.004068082,-0.234337905,-0.972113224,"[0.9604000373840336, 0.0, 0.0, 0.0, 0.0, 0.0, 0.0, 0.9604000373840336, 0.0, 0.0, 0.0, 0.0, 0.0, 0.0, 4.326399682617193, 0.0, 0.0, 0.0, 0.0, 0.0, 0.0, 99999.0, 0.0, 0.0, 0.0, 0.0, 0.0, 0.0, 99999.0, 0.0, 0.0, 0.0, 0.0, 0.0, 0.0, 99999.0]",0,-0.08,0.03,0,0,0,"[-1.0, 0.0, 0.0, 0.0, 0.0, 0.0, 0.0, 0.0, 0.0, 0.0, 0.0, 0.0, 0.0, 0.0, 0.0, 0.0, 0.0, 0.0, 0.0, 0.0, 0.0, 0.0, 0.0, 0.0, 0.0, 0.0, 0.0, 0.0, 0.0, 0.0, 0.0, 0.0, 0.0, 0.0, 0.0, 0.0]",1
1.57E+18,93,1574069795,673820453,map,base_link,5.496886143,-0.955060617,0.118,-0.007935144,-0.004128171,-0.234344465,-0.972112475,"[0.9604000373840336, 0.0, 0.0, 0.0, 0.0, 0.0, 0.0, 0.9604000373840336, 0.0, 0.0, 0.0, 0.0, 0.0, 0.0, 4.326399682617193, 0.0, 0.0, 0.0, 0.0, 0.0, 0.0, 99999.0, 0.0, 0.0, 0.0, 0.0, 0.0, 0.0, 99999.0, 0.0, 0.0, 0.0, 0.0, 0.0, 0.0, 99999.0]",0,-0.08,0.02,0,0,0,"[-1.0, 0.0, 0.0, 0.0, 0.0, 0.0, 0.0, 0.0, 0.0, 0.0, 0.0, 0.0, 0.0, 0.0, 0.0, 0.0, 0.0, 0.0, 0.0, 0.0, 0.0, 0.0, 0.0, 0.0, 0.0, 0.0, 0.0, 0.0, 0.0, 0.0, 0.0, 0.0, 0.0, 0.0, 0.0, 0.0]",1
1.57E+18,94,1574069795,916183219,map,base_link,5.539366009,-1.032798244,0.129,-0.007987682,-0.004133524,-0.234398377,-0.972099024,"[0.9604000373840336, 0.0, 0.0, 0.0, 0.0, 0.0, 0.0, 0.9604000373840336, 0.0, 0.0, 0.0, 0.0, 0.0, 0.0, 4.326399682617193, 0.0, 0.0, 0.0, 0.0, 0.0, 0.0, 99999.0, 0.0, 0.0, 0.0, 0.0, 0.0, 0.0, 99999.0, 0.0, 0.0, 0.0, 0.0, 0.0, 0.0, 99999.0]",0,-0.09,0.02,0,0,0,"[-1.0, 0.0, 0.0, 0.0, 0.0, 0.0, 0.0, 0.0, 0.0, 0.0, 0.0, 0.0, 0.0, 0.0, 0.0, 0.0, 0.0, 0.0, 0.0, 0.0, 0.0, 0.0, 0.0, 0.0, 0.0, 0.0, 0.0, 0.0, 0.0, 0.0, 0.0, 0.0, 0.0, 0.0, 0.0, 0.0]",1
1.57E+18,95,1574069796,199629048,map,base_link,5.581845868,-1.09943049,0.133,-0.008076311,-0.004097548,-0.234541683,-0.972063878,"[0.9604000373840336, 0.0, 0.0, 0.0, 0.0, 0.0, 0.0, 0.9604000373840336, 0.0, 0.0, 0.0, 0.0, 0.0, 0.0, 4.326399682617193, 0.0, 0.0, 0.0, 0.0, 0.0, 0.0, 99999.0, 0.0, 0.0, 0.0, 0.0, 0.0, 0.0, 99999.0, 0.0, 0.0, 0.0, 0.0, 0.0, 0.0, 99999.0]",0,-0.1,0.02,0,0,0,"[-1.0, 0.0, 0.0, 0.0, 0.0, 0.0, 0.0, 0.0, 0.0, 0.0, 0.0, 0.0, 0.0, 0.0, 0.0, 0.0, 0.0, 0.0, 0.0, 0.0, 0.0, 0.0, 0.0, 0.0, 0.0, 0.0, 0.0, 0.0, 0.0, 0.0, 0.0, 0.0, 0.0, 0.0, 0.0, 0.0]",1
1.57E+18,96,1574069796,466865985,map,base_link,5.632821721,-1.210484248,0.145,-0.008219652,-0.004101978,-0.234523818,-0.972066968,"[0.9604000373840336, 0.0, 0.0, 0.0, 0.0, 0.0, 0.0, 0.9604000373840336, 0.0, 0.0, 0.0, 0.0, 0.0, 0.0, 4.326399682617193, 0.0, 0.0, 0.0, 0.0, 0.0, 0.0, 99999.0, 0.0, 0.0, 0.0, 0.0, 0.0, 0.0, 99999.0, 0.0, 0.0, 0.0, 0.0, 0.0, 0.0, 99999.0]",0.01,-0.12,0.02,0,0,0,"[-1.0, 0.0, 0.0, 0.0, 0.0, 0.0, 0.0, 0.0, 0.0, 0.0, 0.0, 0.0, 0.0, 0.0, 0.0, 0.0, 0.0, 0.0, 0.0, 0.0, 0.0, 0.0, 0.0, 0.0, 0.0, 0.0, 0.0, 0.0, 0.0, 0.0, 0.0, 0.0, 0.0, 0.0, 0.0, 0.0]",1
1.57E+18,97,1574069796,753584102,map,base_link,5.692293571,-1.35485414,0.161,-0.008485679,-0.004097813,-0.234568055,-0.972054026,"[0.9604000373840336, 0.0, 0.0, 0.0, 0.0, 0.0, 0.0, 0.9604000373840336, 0.0, 0.0, 0.0, 0.0, 0.0, 0.0, 4.326399682617193, 0.0, 0.0, 0.0, 0.0, 0.0, 0.0, 99999.0, 0.0, 0.0, 0.0, 0.0, 0.0, 0.0, 99999.0, 0.0, 0.0, 0.0, 0.0, 0.0, 0.0, 99999.0]",0.01,-0.15,0.01,0,0,0,"[-1.0, 0.0, 0.0, 0.0, 0.0, 0.0, 0.0, 0.0, 0.0, 0.0, 0.0, 0.0, 0.0, 0.0, 0.0, 0.0, 0.0, 0.0, 0.0, 0.0, 0.0, 0.0, 0.0, 0.0, 0.0, 0.0, 0.0, 0.0, 0.0, 0.0, 0.0, 0.0, 0.0, 0.0, 0.0, 0.0]",1
1.57E+18,98,1574069797,34202996,map,base_link,5.734773484,-1.488118664,0.171,-0.008662861,-0.004144533,-0.234649427,-0.972032625,"[0.9604000373840336, 0.0, 0.0, 0.0, 0.0, 0.0, 0.0, 0.9604000373840336, 0.0, 0.0, 0.0, 0.0, 0.0, 0.0, 4.326399682617193, 0.0, 0.0, 0.0, 0.0, 0.0, 0.0, 99999.0, 0.0, 0.0, 0.0, 0.0, 0.0, 0.0, 99999.0, 0.0, 0.0, 0.0, 0.0, 0.0, 0.0, 99999.0]",0.02,-0.18,0.01,0,0,0,"[-1.0, 0.0, 0.0, 0.0, 0.0, 0.0, 0.0, 0.0, 0.0, 0.0, 0.0, 0.0, 0.0, 0.0, 0.0, 0.0, 0.0, 0.0, 0.0, 0.0, 0.0, 0.0, 0.0, 0.0, 0.0, 0.0, 0.0, 0.0, 0.0, 0.0, 0.0, 0.0, 0.0, 0.0, 0.0, 0.0]",1
1.57E+18,99,1574069797,339019615,map,base_link,5.768757456,-1.643593954,0.186,-0.008860915,-0.004070306,-0.234715098,-0.972015298,"[0.9604000373840336, 0.0, 0.0, 0.0, 0.0, 0.0, 0.0, 0.9604000373840336, 0.0, 0.0, 0.0, 0.0, 0.0, 0.0, 4.326399682617193, 0.0, 0.0, 0.0, 0.0, 0.0, 0.0, 99999.0, 0.0, 0.0, 0.0, 0.0, 0.0, 0.0, 99999.0, 0.0, 0.0, 0.0, 0.0, 0.0, 0.0, 99999.0]",0.01,-0.21,0.01,0,0,0,"[-1.0, 0.0, 0.0, 0.0, 0.0, 0.0, 0.0, 0.0, 0.0, 0.0, 0.0, 0.0, 0.0, 0.0, 0.0, 0.0, 0.0, 0.0, 0.0, 0.0, 0.0, 0.0, 0.0, 0.0, 0.0, 0.0, 0.0, 0.0, 0.0, 0.0, 0.0, 0.0, 0.0, 0.0, 0.0, 0.0]",1
1.57E+18,100,1574069797,613904827,map,base_link,5.760261598,-1.75464776,0.204,-0.008816928,-0.003977863,-0.234753443,-0.972006821,"[0.9604000373840336, 0.0, 0.0, 0.0, 0.0, 0.0, 0.0, 0.9604000373840336, 0.0, 0.0, 0.0, 0.0, 0.0, 0.0, 4.326399682617193, 0.0, 0.0, 0.0, 0.0, 0.0, 0.0, 99999.0, 0.0, 0.0, 0.0, 0.0, 0.0, 0.0, 99999.0, 0.0, 0.0, 0.0, 0.0, 0.0, 0.0, 99999.0]",0,-0.23,0,0,0,0,"[-1.0, 0.0, 0.0, 0.0, 0.0, 0.0, 0.0, 0.0, 0.0, 0.0, 0.0, 0.0, 0.0, 0.0, 0.0, 0.0, 0.0, 0.0, 0.0, 0.0, 0.0, 0.0, 0.0, 0.0, 0.0, 0.0, 0.0, 0.0, 0.0, 0.0, 0.0, 0.0, 0.0, 0.0, 0.0, 0.0]",1
1.57E+18,101,1574069797,883593833,map,base_link,5.785749567,-1.854596159,0.216,-0.00875536,-0.003875315,-0.234768729,-0.9720041,"[0.9604000373840336, 0.0, 0.0, 0.0, 0.0, 0.0, 0.0, 0.9604000373840336, 0.0, 0.0, 0.0, 0.0, 0.0, 0.0, 4.326399682617193, 0.0, 0.0, 0.0, 0.0, 0.0, 0.0, 99999.0, 0.0, 0.0, 0.0, 0.0, 0.0, 0.0, 99999.0, 0.0, 0.0, 0.0, 0.0, 0.0, 0.0, 99999.0]",0,-0.23,0,0,0,0,"[-1.0, 0.0, 0.0, 0.0, 0.0, 0.0, 0.0, 0.0, 0.0, 0.0, 0.0, 0.0, 0.0, 0.0, 0.0, 0.0, 0.0, 0.0, 0.0, 0.0, 0.0, 0.0, 0.0, 0.0, 0.0, 0.0, 0.0, 0.0, 0.0, 0.0, 0.0, 0.0, 0.0, 0.0, 0.0, 0.0]",1
1.57E+18,102,1574069798,172407038,map,base_link,5.819733472,-1.932333788,0.218,-0.008660593,-0.00392433,-0.234847002,-0.971985843,"[0.9604000373840336, 0.0, 0.0, 0.0, 0.0, 0.0, 0.0, 0.9604000373840336, 0.0, 0.0, 0.0, 0.0, 0.0, 0.0, 4.326399682617193, 0.0, 0.0, 0.0, 0.0, 0.0, 0.0, 99999.0, 0.0, 0.0, 0.0, 0.0, 0.0, 0.0, 99999.0, 0.0, 0.0, 0.0, 0.0, 0.0, 0.0, 99999.0]",0,-0.23,0,0,0,0,"[-1.0, 0.0, 0.0, 0.0, 0.0, 0.0, 0.0, 0.0, 0.0, 0.0, 0.0, 0.0, 0.0, 0.0, 0.0, 0.0, 0.0, 0.0, 0.0, 0.0, 0.0, 0.0, 0.0, 0.0, 0.0, 0.0, 0.0, 0.0, 0.0, 0.0, 0.0, 0.0, 0.0, 0.0, 0.0, 0.0]",1
1.57E+18,103,1574069798,433773910,map,base_link,5.8707093,-2.010071407,0.217,-0.008660593,-0.00392433,-0.234847002,-0.971985843,"[0.9604000373840336, 0.0, 0.0, 0.0, 0.0, 0.0, 0.0, 0.9604000373840336, 0.0, 0.0, 0.0, 0.0, 0.0, 0.0, 4.326399682617193, 0.0, 0.0, 0.0, 0.0, 0.0, 0.0, 99999.0, 0.0, 0.0, 0.0, 0.0, 0.0, 0.0, 99999.0, 0.0, 0.0, 0.0, 0.0, 0.0, 0.0, 99999.0]",0,-0.23,0,0,0,0,"[-1.0, 0.0, 0.0, 0.0, 0.0, 0.0, 0.0, 0.0, 0.0, 0.0, 0.0, 0.0, 0.0, 0.0, 0.0, 0.0, 0.0, 0.0, 0.0, 0.0, 0.0, 0.0, 0.0, 0.0, 0.0, 0.0, 0.0, 0.0, 0.0, 0.0, 0.0, 0.0, 0.0, 0.0, 0.0, 0.0]",1
1.57E+18,104,1574069798,696569421,map,base_link,5.94717297,-2.032282106,0.217,-0.008608169,-0.004040824,-0.234969893,-0.971956131,"[0.9604000373840336, 0.0, 0.0, 0.0, 0.0, 0.0, 0.0, 0.9604000373840336, 0.0, 0.0, 0.0, 0.0, 0.0, 0.0, 4.326399682617193, 0.0, 0.0, 0.0, 0.0, 0.0, 0.0, 99999.0, 0.0, 0.0, 0.0, 0.0, 0.0, 0.0, 99999.0, 0.0, 0.0, 0.0, 0.0, 0.0, 0.0, 99999.0]",0.02,-0.2,0,0,0,0,"[-1.0, 0.0, 0.0, 0.0, 0.0, 0.0, 0.0, 0.0, 0.0, 0.0, 0.0, 0.0, 0.0, 0.0, 0.0, 0.0, 0.0, 0.0, 0.0, 0.0, 0.0, 0.0, 0.0, 0.0, 0.0, 0.0, 0.0, 0.0, 0.0, 0.0, 0.0, 0.0, 0.0, 0.0, 0.0, 0.0]",1
1.57E+18,105,1574069798,995037164,map,base_link,6.032132629,-2.087808936,0.212,-0.008420463,-0.004231467,-0.235043378,-0.971939196,"[0.722500040531159, 0.0, 0.0, 0.0, 0.0, 0.0, 0.0, 0.722500040531159, 0.0, 0.0, 0.0, 0.0, 0.0, 0.0, 2.016399878120424, 0.0, 0.0, 0.0, 0.0, 0.0, 0.0, 99999.0, 0.0, 0.0, 0.0, 0.0, 0.0, 0.0, 99999.0, 0.0, 0.0, 0.0, 0.0, 0.0, 0.0, 99999.0]",0.03,-0.19,0.01,0,0,0,"[-1.0, 0.0, 0.0, 0.0, 0.0, 0.0, 0.0, 0.0, 0.0, 0.0, 0.0, 0.0, 0.0, 0.0, 0.0, 0.0, 0.0, 0.0, 0.0, 0.0, 0.0, 0.0, 0.0, 0.0, 0.0, 0.0, 0.0, 0.0, 0.0, 0.0, 0.0, 0.0, 0.0, 0.0, 0.0, 0.0]",1
1.57E+18,106,1574069799,271450003,map,base_link,6.11709227,-2.121125004,0.21,-0.008256166,-0.004412026,-0.235179818,-0.971906797,"[0.722500040531159, 0.0, 0.0, 0.0, 0.0, 0.0, 0.0, 0.722500040531159, 0.0, 0.0, 0.0, 0.0, 0.0, 0.0, 2.016399878120424, 0.0, 0.0, 0.0, 0.0, 0.0, 0.0, 99999.0, 0.0, 0.0, 0.0, 0.0, 0.0, 0.0, 99999.0, 0.0, 0.0, 0.0, 0.0, 0.0, 0.0, 99999.0]",0.05,-0.18,0.01,0,0,0,"[-1.0, 0.0, 0.0, 0.0, 0.0, 0.0, 0.0, 0.0, 0.0, 0.0, 0.0, 0.0, 0.0, 0.0, 0.0, 0.0, 0.0, 0.0, 0.0, 0.0, 0.0, 0.0, 0.0, 0.0, 0.0, 0.0, 0.0, 0.0, 0.0, 0.0, 0.0, 0.0, 0.0, 0.0, 0.0, 0.0]",1
1.57E+18,107,1574069799,556982200,map,base_link,6.193555932,-2.143335698,0.206,-0.008170393,-0.004573236,-0.235230739,-0.971894454,"[0.722500040531159, 0.0, 0.0, 0.0, 0.0, 0.0, 0.0, 0.722500040531159, 0.0, 0.0, 0.0, 0.0, 0.0, 0.0, 2.016399878120424, 0.0, 0.0, 0.0, 0.0, 0.0, 0.0, 99999.0, 0.0, 0.0, 0.0, 0.0, 0.0, 0.0, 99999.0, 0.0, 0.0, 0.0, 0.0, 0.0, 0.0, 99999.0]",0.06,-0.16,0.01,0,0,0,"[-1.0, 0.0, 0.0, 0.0, 0.0, 0.0, 0.0, 0.0, 0.0, 0.0, 0.0, 0.0, 0.0, 0.0, 0.0, 0.0, 0.0, 0.0, 0.0, 0.0, 0.0, 0.0, 0.0, 0.0, 0.0, 0.0, 0.0, 0.0, 0.0, 0.0, 0.0, 0.0, 0.0, 0.0, 0.0, 0.0]",1
1.57E+18,108,1574069799,833279191,map,base_link,6.270019576,-2.143335631,0.196,-0.007987975,-0.004618031,-0.235329884,-0.971871757,"[0.722500040531159, 0.0, 0.0, 0.0, 0.0, 0.0, 0.0, 0.722500040531159, 0.0, 0.0, 0.0, 0.0, 0.0, 0.0, 2.016399878120424, 0.0, 0.0, 0.0, 0.0, 0.0, 0.0, 99999.0, 0.0, 0.0, 0.0, 0.0, 0.0, 0.0, 99999.0, 0.0, 0.0, 0.0, 0.0, 0.0, 0.0, 99999.0]",0.07,-0.13,0.01,0,0,0,"[-1.0, 0.0, 0.0, 0.0, 0.0, 0.0, 0.0, 0.0, 0.0, 0.0, 0.0, 0.0, 0.0, 0.0, 0.0, 0.0, 0.0, 0.0, 0.0, 0.0, 0.0, 0.0, 0.0, 0.0, 0.0, 0.0, 0.0, 0.0, 0.0, 0.0, 0.0, 0.0, 0.0, 0.0, 0.0, 0.0]",1
1.57E+18,109,1574069800,126246691,map,base_link,6.329491296,-2.143335578,0.182,-0.007833585,-0.00446333,-0.235476655,-0.971838185,"[0.722500040531159, 0.0, 0.0, 0.0, 0.0, 0.0, 0.0, 0.722500040531159, 0.0, 0.0, 0.0, 0.0, 0.0, 0.0, 2.016399878120424, 0.0, 0.0, 0.0, 0.0, 0.0, 0.0, 99999.0, 0.0, 0.0, 0.0, 0.0, 0.0, 0.0, 99999.0, 0.0, 0.0, 0.0, 0.0, 0.0, 0.0, 99999.0]",0.08,-0.1,0.02,0,0,0,"[-1.0, 0.0, 0.0, 0.0, 0.0, 0.0, 0.0, 0.0, 0.0, 0.0, 0.0, 0.0, 0.0, 0.0, 0.0, 0.0, 0.0, 0.0, 0.0, 0.0, 0.0, 0.0, 0.0, 0.0, 0.0, 0.0, 0.0, 0.0, 0.0, 0.0, 0.0, 0.0, 0.0, 0.0, 0.0, 0.0]",1
1.57E+18,110,1574069800,430388669,map,base_link,6.431442823,-2.154440865,0.169,-0.007230533,-0.006480444,-0.235594279,-0.971802994,"[0.722500040531159, 0.0, 0.0, 0.0, 0.0, 0.0, 0.0, 0.722500040531159, 0.0, 0.0, 0.0, 0.0, 0.0, 0.0, 2.016399878120424, 0.0, 0.0, 0.0, 0.0, 0.0, 0.0, 99999.0, 0.0, 0.0, 0.0, 0.0, 0.0, 0.0, 99999.0, 0.0, 0.0, 0.0, 0.0, 0.0, 0.0, 99999.0]",0.09,-0.09,0.02,0,0,0,"[-1.0, 0.0, 0.0, 0.0, 0.0, 0.0, 0.0, 0.0, 0.0, 0.0, 0.0, 0.0, 0.0, 0.0, 0.0, 0.0, 0.0, 0.0, 0.0, 0.0, 0.0, 0.0, 0.0, 0.0, 0.0, 0.0, 0.0, 0.0, 0.0, 0.0, 0.0, 0.0, 0.0, 0.0, 0.0, 0.0]",1
1.57E+18,111,1574069800,695583680,map,base_link,6.541890332,-2.165546149,0.167,-0.007382956,-0.005397577,-0.235701509,-0.971782464,"[0.722500040531159, 0.0, 0.0, 0.0, 0.0, 0.0, 0.0, 0.722500040531159, 0.0, 0.0, 0.0, 0.0, 0.0, 0.0, 2.016399878120424, 0.0, 0.0, 0.0, 0.0, 0.0, 0.0, 99999.0, 0.0, 0.0, 0.0, 0.0, 0.0, 0.0, 99999.0, 0.0, 0.0, 0.0, 0.0, 0.0, 0.0, 99999.0]",0.12,-0.08,0.02,0,0,0,"[-1.0, 0.0, 0.0, 0.0, 0.0, 0.0, 0.0, 0.0, 0.0, 0.0, 0.0, 0.0, 0.0, 0.0, 0.0, 0.0, 0.0, 0.0, 0.0, 0.0, 0.0, 0.0, 0.0, 0.0, 0.0, 0.0, 0.0, 0.0, 0.0, 0.0, 0.0, 0.0, 0.0, 0.0, 0.0, 0.0]",1
1.57E+18,112,1574069800,972102529,map,base_link,6.643841889,-2.187756817,0.161,-0.007488029,-0.004632705,-0.235464633,-0.971843029,"[0.722500040531159, 0.0, 0.0, 0.0, 0.0, 0.0, 0.0, 0.722500040531159, 0.0, 0.0, 0.0, 0.0, 0.0, 0.0, 2.016399878120424, 0.0, 0.0, 0.0, 0.0, 0.0, 0.0, 99999.0, 0.0, 0.0, 0.0, 0.0, 0.0, 0.0, 99999.0, 0.0, 0.0, 0.0, 0.0, 0.0, 0.0, 99999.0]",0.13,-0.07,0.02,0,0,0,"[-1.0, 0.0, 0.0, 0.0, 0.0, 0.0, 0.0, 0.0, 0.0, 0.0, 0.0, 0.0, 0.0, 0.0, 0.0, 0.0, 0.0, 0.0, 0.0, 0.0, 0.0, 0.0, 0.0, 0.0, 0.0, 0.0, 0.0, 0.0, 0.0, 0.0, 0.0, 0.0, 0.0, 0.0, 0.0, 0.0]",1
1.57E+18,113,1574069801,279173997,map,base_link,6.711809581,-2.198862134,0.157,-0.007757001,-0.003304216,-0.235321511,-0.97188101,"[0.722500040531159, 0.0, 0.0, 0.0, 0.0, 0.0, 0.0, 0.722500040531159, 0.0, 0.0, 0.0, 0.0, 0.0, 0.0, 2.016399878120424, 0.0, 0.0, 0.0, 0.0, 0.0, 0.0, 99999.0, 0.0, 0.0, 0.0, 0.0, 0.0, 0.0, 99999.0, 0.0, 0.0, 0.0, 0.0, 0.0, 0.0, 99999.0]",0.13,-0.05,0.03,0,0,0,"[-1.0, 0.0, 0.0, 0.0, 0.0, 0.0, 0.0, 0.0, 0.0, 0.0, 0.0, 0.0, 0.0, 0.0, 0.0, 0.0, 0.0, 0.0, 0.0, 0.0, 0.0, 0.0, 0.0, 0.0, 0.0, 0.0, 0.0, 0.0, 0.0, 0.0, 0.0, 0.0, 0.0, 0.0, 0.0, 0.0]",1
1.57E+18,114,1574069801,548252742,map,base_link,6.76278539,-2.23217823,0.162,-0.007545366,-0.003649961,-0.235185979,-0.971914245,"[0.722500040531159, 0.0, 0.0, 0.0, 0.0, 0.0, 0.0, 0.722500040531159, 0.0, 0.0, 0.0, 0.0, 0.0, 0.0, 2.016399878120424, 0.0, 0.0, 0.0, 0.0, 0.0, 0.0, 99999.0, 0.0, 0.0, 0.0, 0.0, 0.0, 0.0, 99999.0, 0.0, 0.0, 0.0, 0.0, 0.0, 0.0, 99999.0]",0.13,-0.05,0.02,0,0,0,"[-1.0, 0.0, 0.0, 0.0, 0.0, 0.0, 0.0, 0.0, 0.0, 0.0, 0.0, 0.0, 0.0, 0.0, 0.0, 0.0, 0.0, 0.0, 0.0, 0.0, 0.0, 0.0, 0.0, 0.0, 0.0, 0.0, 0.0, 0.0, 0.0, 0.0, 0.0, 0.0, 0.0, 0.0, 0.0, 0.0]",1
1.57E+18,115,1574069801,831952131,map,base_link,6.805265229,-2.254388954,0.17,-0.007297004,-0.004417275,-0.235295706,-0.971886399,"[0.722500040531159, 0.0, 0.0, 0.0, 0.0, 0.0, 0.0, 0.722500040531159, 0.0, 0.0, 0.0, 0.0, 0.0, 0.0, 2.016399878120424, 0.0, 0.0, 0.0, 0.0, 0.0, 0.0, 99999.0, 0.0, 0.0, 0.0, 0.0, 0.0, 0.0, 99999.0, 0.0, 0.0, 0.0, 0.0, 0.0, 0.0, 99999.0]",0.13,-0.04,0.02,0,0,0,"[-1.0, 0.0, 0.0, 0.0, 0.0, 0.0, 0.0, 0.0, 0.0, 0.0, 0.0, 0.0, 0.0, 0.0, 0.0, 0.0, 0.0, 0.0, 0.0, 0.0, 0.0, 0.0, 0.0, 0.0, 0.0, 0.0, 0.0, 0.0, 0.0, 0.0, 0.0, 0.0, 0.0, 0.0, 0.0, 0.0]",1
1.57E+18,116,1574069802,132691955,map,base_link,6.873232942,-2.27659965,0.177,-0.006406207,-0.008626195,-0.235091916,-0.971913751,"[0.774399991607666, 0.0, 0.0, 0.0, 0.0, 0.0, 0.0, 0.774399991607666, 0.0, 0.0, 0.0, 0.0, 0.0, 0.0, 2.016399878120424, 0.0, 0.0, 0.0, 0.0, 0.0, 0.0, 99999.0, 0.0, 0.0, 0.0, 0.0, 0.0, 0.0, 99999.0, 0.0, 0.0, 0.0, 0.0, 0.0, 0.0, 99999.0]",0.13,-0.04,0.02,0,0,0,"[-1.0, 0.0, 0.0, 0.0, 0.0, 0.0, 0.0, 0.0, 0.0, 0.0, 0.0, 0.0, 0.0, 0.0, 0.0, 0.0, 0.0, 0.0, 0.0, 0.0, 0.0, 0.0, 0.0, 0.0, 0.0, 0.0, 0.0, 0.0, 0.0, 0.0, 0.0, 0.0, 0.0, 0.0, 0.0, 0.0]",1
1.57E+18,117,1574069802,411333107,map,base_link,6.91571276,-2.276599616,0.185,-0.006267718,-0.008182901,-0.234293348,-0.972111302,"[0.722500040531159, 0.0, 0.0, 0.0, 0.0, 0.0, 0.0, 0.722500040531159, 0.0, 0.0, 0.0, 0.0, 0.0, 0.0, 2.016399878120424, 0.0, 0.0, 0.0, 0.0, 0.0, 0.0, 99999.0, 0.0, 0.0, 0.0, 0.0, 0.0, 0.0, 99999.0, 0.0, 0.0, 0.0, 0.0, 0.0, 0.0, 99999.0]",0.12,-0.03,0.02,0,0,0,"[-1.0, 0.0, 0.0, 0.0, 0.0, 0.0, 0.0, 0.0, 0.0, 0.0, 0.0, 0.0, 0.0, 0.0, 0.0, 0.0, 0.0, 0.0, 0.0, 0.0, 0.0, 0.0, 0.0, 0.0, 0.0, 0.0, 0.0, 0.0, 0.0, 0.0, 0.0, 0.0, 0.0, 0.0, 0.0, 0.0]",1
1.57E+18,118,1574069802,686854050,map,base_link,6.96668852,-2.254388813,0.192,-0.006066747,-0.008827632,-0.234577059,-0.972038513,"[0.722500040531159, 0.0, 0.0, 0.0, 0.0, 0.0, 0.0, 0.722500040531159, 0.0, 0.0, 0.0, 0.0, 0.0, 0.0, 2.016399878120424, 0.0, 0.0, 0.0, 0.0, 0.0, 0.0, 99999.0, 0.0, 0.0, 0.0, 0.0, 0.0, 0.0, 99999.0, 0.0, 0.0, 0.0, 0.0, 0.0, 0.0, 99999.0]",0.11,-0.01,0.02,0,0,0,"[-1.0, 0.0, 0.0, 0.0, 0.0, 0.0, 0.0, 0.0, 0.0, 0.0, 0.0, 0.0, 0.0, 0.0, 0.0, 0.0, 0.0, 0.0, 0.0, 0.0, 0.0, 0.0, 0.0, 0.0, 0.0, 0.0, 0.0, 0.0, 0.0, 0.0, 0.0, 0.0, 0.0, 0.0, 0.0, 0.0]",1
1.57E+18,119,1574069802,971616155,map,base_link,6.992176385,-2.232178031,0.196,-0.006099459,-0.007820765,-0.234535702,-0.97205691,"[0.722500040531159, 0.0, 0.0, 0.0, 0.0, 0.0, 0.0, 0.722500040531159, 0.0, 0.0, 0.0, 0.0, 0.0, 0.0, 2.016399878120424, 0.0, 0.0, 0.0, 0.0, 0.0, 0.0, 99999.0, 0.0, 0.0, 0.0, 0.0, 0.0, 0.0, 99999.0, 0.0, 0.0, 0.0, 0.0, 0.0, 0.0, 99999.0]",0.11,0,0.02,0,0,0,"[-1.0, 0.0, 0.0, 0.0, 0.0, 0.0, 0.0, 0.0, 0.0, 0.0, 0.0, 0.0, 0.0, 0.0, 0.0, 0.0, 0.0, 0.0, 0.0, 0.0, 0.0, 0.0, 0.0, 0.0, 0.0, 0.0, 0.0, 0.0, 0.0, 0.0, 0.0, 0.0, 0.0, 0.0, 0.0, 0.0]",1
1.57E+18,120,1574069803,227184983,map,base_link,7.000672304,-2.198861881,0.189,-0.005916974,-0.007903943,-0.235076152,-0.971926808,"[0.722500040531159, 0.0, 0.0, 0.0, 0.0, 0.0, 0.0, 0.722500040531159, 0.0, 0.0, 0.0, 0.0, 0.0, 0.0, 2.016399878120424, 0.0, 0.0, 0.0, 0.0, 0.0, 0.0, 99999.0, 0.0, 0.0, 0.0, 0.0, 0.0, 0.0, 99999.0, 0.0, 0.0, 0.0, 0.0, 0.0, 0.0, 99999.0]",0.09,0.01,0.02,0,0,0,"[-1.0, 0.0, 0.0, 0.0, 0.0, 0.0, 0.0, 0.0, 0.0, 0.0, 0.0, 0.0, 0.0, 0.0, 0.0, 0.0, 0.0, 0.0, 0.0, 0.0, 0.0, 0.0, 0.0, 0.0, 0.0, 0.0, 0.0, 0.0, 0.0, 0.0, 0.0, 0.0, 0.0, 0.0, 0.0, 0.0]",1
1.57E+18,121,1574069803,508512649,map,base_link,6.992176322,-2.17665113,0.185,-0.005503139,-0.008068697,-0.235202171,-0.971897397,"[0.722500040531159, 0.0, 0.0, 0.0, 0.0, 0.0, 0.0, 0.722500040531159, 0.0, 0.0, 0.0, 0.0, 0.0, 0.0, 2.016399878120424, 0.0, 0.0, 0.0, 0.0, 0.0, 0.0, 99999.0, 0.0, 0.0, 0.0, 0.0, 0.0, 0.0, 99999.0, 0.0, 0.0, 0.0, 0.0, 0.0, 0.0, 99999.0]",0.06,0.02,0.03,0,0,0,"[-1.0, 0.0, 0.0, 0.0, 0.0, 0.0, 0.0, 0.0, 0.0, 0.0, 0.0, 0.0, 0.0, 0.0, 0.0, 0.0, 0.0, 0.0, 0.0, 0.0, 0.0, 0.0, 0.0, 0.0, 0.0, 0.0, 0.0, 0.0, 0.0, 0.0, 0.0, 0.0, 0.0, 0.0, 0.0, 0.0]",1
1.57E+18,122,1574069803,832006513,map,base_link,7.009168213,-2.154440352,0.171,-0.005807091,-0.006696509,-0.235010319,-0.97195246,"[0.722500040531159, 0.0, 0.0, 0.0, 0.0, 0.0, 0.0, 0.722500040531159, 0.0, 0.0, 0.0, 0.0, 0.0, 0.0, 2.016399878120424, 0.0, 0.0, 0.0, 0.0, 0.0, 0.0, 99999.0, 0.0, 0.0, 0.0, 0.0, 0.0, 0.0, 99999.0, 0.0, 0.0, 0.0, 0.0, 0.0, 0.0, 99999.0]",0.06,0.03,0.03,0,0,0,"[-1.0, 0.0, 0.0, 0.0, 0.0, 0.0, 0.0, 0.0, 0.0, 0.0, 0.0, 0.0, 0.0, 0.0, 0.0, 0.0, 0.0, 0.0, 0.0, 0.0, 0.0, 0.0, 0.0, 0.0, 0.0, 0.0, 0.0, 0.0, 0.0, 0.0, 0.0, 0.0, 0.0, 0.0, 0.0, 0.0]",1
1.57E+18,123,1574069804,106531217,map,base_link,7.077135852,-2.121124142,0.155,-0.005774361,-0.007555268,-0.235082262,-0.971928961,"[0.722500040531159, 0.0, 0.0, 0.0, 0.0, 0.0, 0.0, 0.722500040531159, 0.0, 0.0, 0.0, 0.0, 0.0, 0.0, 2.016399878120424, 0.0, 0.0, 0.0, 0.0, 0.0, 0.0, 99999.0, 0.0, 0.0, 0.0, 0.0, 0.0, 0.0, 99999.0, 0.0, 0.0, 0.0, 0.0, 0.0, 0.0, 99999.0]",0.06,0.05,0.04,0,0,0,"[-1.0, 0.0, 0.0, 0.0, 0.0, 0.0, 0.0, 0.0, 0.0, 0.0, 0.0, 0.0, 0.0, 0.0, 0.0, 0.0, 0.0, 0.0, 0.0, 0.0, 0.0, 0.0, 0.0, 0.0, 0.0, 0.0, 0.0, 0.0, 0.0, 0.0, 0.0, 0.0, 0.0, 0.0, 0.0, 0.0]",1
1.57E+18,124,1574069804,385873452,map,base_link,7.102623704,-2.098913356,0.146,-0.005896437,-0.008911692,-0.235730081,-0.971759817,"[0.722500040531159, 0.0, 0.0, 0.0, 0.0, 0.0, 0.0, 0.722500040531159, 0.0, 0.0, 0.0, 0.0, 0.0, 0.0, 2.016399878120424, 0.0, 0.0, 0.0, 0.0, 0.0, 0.0, 99999.0, 0.0, 0.0, 0.0, 0.0, 0.0, 0.0, 99999.0, 0.0, 0.0, 0.0, 0.0, 0.0, 0.0, 99999.0]",0.05,0.05,0.03,0,0,0,"[-1.0, 0.0, 0.0, 0.0, 0.0, 0.0, 0.0, 0.0, 0.0, 0.0, 0.0, 0.0, 0.0, 0.0, 0.0, 0.0, 0.0, 0.0, 0.0, 0.0, 0.0, 0.0, 0.0, 0.0, 0.0, 0.0, 0.0, 0.0, 0.0, 0.0, 0.0, 0.0, 0.0, 0.0, 0.0, 0.0]",1
1.57E+18,125,1574069804,647845629,map,base_link,7.094127753,-2.098913367,0.153,-0.00612456,-0.008606551,-0.235574901,-0.971798787,"[0.722500040531159, 0.0, 0.0, 0.0, 0.0, 0.0, 0.0, 0.722500040531159, 0.0, 0.0, 0.0, 0.0, 0.0, 0.0, 2.016399878120424, 0.0, 0.0, 0.0, 0.0, 0.0, 0.0, 99999.0, 0.0, 0.0, 0.0, 0.0, 0.0, 0.0, 99999.0, 0.0, 0.0, 0.0, 0.0, 0.0, 0.0, 99999.0]",0.04,0.05,0.03,0,0,0,"[-1.0, 0.0, 0.0, 0.0, 0.0, 0.0, 0.0, 0.0, 0.0, 0.0, 0.0, 0.0, 0.0, 0.0, 0.0, 0.0, 0.0, 0.0, 0.0, 0.0, 0.0, 0.0, 0.0, 0.0, 0.0, 0.0, 0.0, 0.0, 0.0, 0.0, 0.0, 0.0, 0.0, 0.0, 0.0, 0.0]",1
1.57E+18,126,1574069804,931889273,map,base_link,7.119615648,-2.110018724,0.151,-0.006731755,-0.008015015,-0.236667482,-0.971534326,"[0.722500040531159, 0.0, 0.0, 0.0, 0.0, 0.0, 0.0, 0.722500040531159, 0.0, 0.0, 0.0, 0.0, 0.0, 0.0, 2.016399878120424, 0.0, 0.0, 0.0, 0.0, 0.0, 0.0, 99999.0, 0.0, 0.0, 0.0, 0.0, 0.0, 0.0, 99999.0, 0.0, 0.0, 0.0, 0.0, 0.0, 0.0, 99999.0]",0.03,0.05,0.03,0,0,0,"[-1.0, 0.0, 0.0, 0.0, 0.0, 0.0, 0.0, 0.0, 0.0, 0.0, 0.0, 0.0, 0.0, 0.0, 0.0, 0.0, 0.0, 0.0, 0.0, 0.0, 0.0, 0.0, 0.0, 0.0, 0.0, 0.0, 0.0, 0.0, 0.0, 0.0, 0.0, 0.0, 0.0, 0.0, 0.0, 0.0]",1
1.57E+18,127,1574069805,190367542,map,base_link,7.145103522,-2.09891332,0.151,-0.006617851,-0.00899101,-0.23638752,-0.971594723,"[0.722500040531159, 0.0, 0.0, 0.0, 0.0, 0.0, 0.0, 0.722500040531159, 0.0, 0.0, 0.0, 0.0, 0.0, 0.0, 2.016399878120424, 0.0, 0.0, 0.0, 0.0, 0.0, 0.0, 99999.0, 0.0, 0.0, 0.0, 0.0, 0.0, 0.0, 99999.0, 0.0, 0.0, 0.0, 0.0, 0.0, 0.0, 99999.0]",0.03,0.05,0.03,0,0,0,"[-1.0, 0.0, 0.0, 0.0, 0.0, 0.0, 0.0, 0.0, 0.0, 0.0, 0.0, 0.0, 0.0, 0.0, 0.0, 0.0, 0.0, 0.0, 0.0, 0.0, 0.0, 0.0, 0.0, 0.0, 0.0, 0.0, 0.0, 0.0, 0.0, 0.0, 0.0, 0.0, 0.0, 0.0, 0.0, 0.0]",1
1.57E+18,128,1574069805,481420959,map,base_link,7.187583308,-2.07670252,0.151,-0.007103239,-0.008902928,-0.236709774,-0.971513646,"[0.722500040531159, 0.0, 0.0, 0.0, 0.0, 0.0, 0.0, 0.722500040531159, 0.0, 0.0, 0.0, 0.0, 0.0, 0.0, 2.016399878120424, 0.0, 0.0, 0.0, 0.0, 0.0, 0.0, 99999.0, 0.0, 0.0, 0.0, 0.0, 0.0, 0.0, 99999.0, 0.0, 0.0, 0.0, 0.0, 0.0, 0.0, 99999.0]",0.02,0.06,0.03,0,0,0,"[-1.0, 0.0, 0.0, 0.0, 0.0, 0.0, 0.0, 0.0, 0.0, 0.0, 0.0, 0.0, 0.0, 0.0, 0.0, 0.0, 0.0, 0.0, 0.0, 0.0, 0.0, 0.0, 0.0, 0.0, 0.0, 0.0, 0.0, 0.0, 0.0, 0.0, 0.0, 0.0, 0.0, 0.0, 0.0, 0.0]",1
1.57E+18,129,1574069805,745529467,map,base_link,7.264046894,-2.032280923,0.139,-0.006712253,-0.007434416,-0.236773044,-0.971513356,"[0.722500040531159, 0.0, 0.0, 0.0, 0.0, 0.0, 0.0, 0.722500040531159, 0.0, 0.0, 0.0, 0.0, 0.0, 0.0, 2.016399878120424, 0.0, 0.0, 0.0, 0.0, 0.0, 0.0, 99999.0, 0.0, 0.0, 0.0, 0.0, 0.0, 0.0, 99999.0, 0.0, 0.0, 0.0, 0.0, 0.0, 0.0, 99999.0]",0.02,0.1,0.02,0,0,0,"[-1.0, 0.0, 0.0, 0.0, 0.0, 0.0, 0.0, 0.0, 0.0, 0.0, 0.0, 0.0, 0.0, 0.0, 0.0, 0.0, 0.0, 0.0, 0.0, 0.0, 0.0, 0.0, 0.0, 0.0, 0.0, 0.0, 0.0, 0.0, 0.0, 0.0, 0.0, 0.0, 0.0, 0.0, 0.0, 0.0]",1
1.57E+18,130,1574069806,32039605,map,base_link,7.349006442,-1.954543188,0.142,-0.000415564,-0.02256838,-0.228243199,-0.973342457,"[0.722500040531159, 0.0, 0.0, 0.0, 0.0, 0.0, 0.0, 0.722500040531159, 0.0, 0.0, 0.0, 0.0, 0.0, 0.0, 2.016399878120424, 0.0, 0.0, 0.0, 0.0, 0.0, 0.0, 99999.0, 0.0, 0.0, 0.0, 0.0, 0.0, 0.0, 99999.0, 0.0, 0.0, 0.0, 0.0, 0.0, 0.0, 99999.0]",0.06,0.09,-0.09,0,0,0,"[-1.0, 0.0, 0.0, 0.0, 0.0, 0.0, 0.0, 0.0, 0.0, 0.0, 0.0, 0.0, 0.0, 0.0, 0.0, 0.0, 0.0, 0.0, 0.0, 0.0, 0.0, 0.0, 0.0, 0.0, 0.0, 0.0, 0.0, 0.0, 0.0, 0.0, 0.0, 0.0, 0.0, 0.0, 0.0, 0.0]",1
1.57E+18,131,1574069806,347252311,map,base_link,7.459453884,-1.876805428,0.161,-0.008675454,-0.000239199,-0.216686283,-0.976202711,"[0.722500040531159, 0.0, 0.0, 0.0, 0.0, 0.0, 0.0, 0.722500040531159, 0.0, 0.0, 0.0, 0.0, 0.0, 0.0, 2.016399878120424, 0.0, 0.0, 0.0, 0.0, 0.0, 0.0, 99999.0, 0.0, 0.0, 0.0, 0.0, 0.0, 0.0, 99999.0, 0.0, 0.0, 0.0, 0.0, 0.0, 0.0, 99999.0]",0.04,0.1,-0.1,0,0,0,"[-1.0, 0.0, 0.0, 0.0, 0.0, 0.0, 0.0, 0.0, 0.0, 0.0, 0.0, 0.0, 0.0, 0.0, 0.0, 0.0, 0.0, 0.0, 0.0, 0.0, 0.0, 0.0, 0.0, 0.0, 0.0, 0.0, 0.0, 0.0, 0.0, 0.0, 0.0, 0.0, 0.0, 0.0, 0.0, 0.0]",1
1.57E+18,132,1574069806,615868176,map,base_link,7.54441351,-1.83238384,0.211,-0.002335028,-0.000506116,-0.216192742,-0.976347781,"[0.722500040531159, 0.0, 0.0, 0.0, 0.0, 0.0, 0.0, 0.722500040531159, 0.0, 0.0, 0.0, 0.0, 0.0, 0.0, 2.016399878120424, 0.0, 0.0, 0.0, 0.0, 0.0, 0.0, 99999.0, 0.0, 0.0, 0.0, 0.0, 0.0, 0.0, 99999.0, 0.0, 0.0, 0.0, 0.0, 0.0, 0.0, 99999.0]",0.09,0.12,-0.2,0,0,0,"[-1.0, 0.0, 0.0, 0.0, 0.0, 0.0, 0.0, 0.0, 0.0, 0.0, 0.0, 0.0, 0.0, 0.0, 0.0, 0.0, 0.0, 0.0, 0.0, 0.0, 0.0, 0.0, 0.0, 0.0, 0.0, 0.0, 0.0, 0.0, 0.0, 0.0, 0.0, 0.0, 0.0, 0.0, 0.0, 0.0]",1
1.57E+18,133,1574069806,904942278,map,base_link,7.569901476,-1.843489212,0.27,-0.00195619,-0.003135687,-0.21628156,-0.976324038,"[0.722500040531159, 0.0, 0.0, 0.0, 0.0, 0.0, 0.0, 0.722500040531159, 0.0, 0.0, 0.0, 0.0, 0.0, 0.0, 2.016399878120424, 0.0, 0.0, 0.0, 0.0, 0.0, 0.0, 99999.0, 0.0, 0.0, 0.0, 0.0, 0.0, 0.0, 99999.0, 0.0, 0.0, 0.0, 0.0, 0.0, 0.0, 99999.0]",0.08,0.11,-0.17,0,0,0,"[-1.0, 0.0, 0.0, 0.0, 0.0, 0.0, 0.0, 0.0, 0.0, 0.0, 0.0, 0.0, 0.0, 0.0, 0.0, 0.0, 0.0, 0.0, 0.0, 0.0, 0.0, 0.0, 0.0, 0.0, 0.0, 0.0, 0.0, 0.0, 0.0, 0.0, 0.0, 0.0, 0.0, 0.0, 0.0, 0.0]",1
1.57E+18,134,1574069807,206177879,map,base_link,7.493437994,-1.954543101,0.324,-0.004333114,-0.003791232,-0.213430079,-0.976941376,"[0.722500040531159, 0.0, 0.0, 0.0, 0.0, 0.0, 0.0, 0.722500040531159, 0.0, 0.0, 0.0, 0.0, 0.0, 0.0, 2.016399878120424, 0.0, 0.0, 0.0, 0.0, 0.0, 0.0, 99999.0, 0.0, 0.0, 0.0, 0.0, 0.0, 0.0, 99999.0, 0.0, 0.0, 0.0, 0.0, 0.0, 0.0, 99999.0]",0,0.05,-0.18,0,0,0,"[-1.0, 0.0, 0.0, 0.0, 0.0, 0.0, 0.0, 0.0, 0.0, 0.0, 0.0, 0.0, 0.0, 0.0, 0.0, 0.0, 0.0, 0.0, 0.0, 0.0, 0.0, 0.0, 0.0, 0.0, 0.0, 0.0, 0.0, 0.0, 0.0, 0.0, 0.0, 0.0, 0.0, 0.0, 0.0, 0.0]",1
1.57E+18,135,1574069807,489975902,map,base_link,7.442462339,-1.998964689,0.389,-0.004333114,-0.003791232,-0.213430079,-0.976941376,"[0.722500040531159, 0.0, 0.0, 0.0, 0.0, 0.0, 0.0, 0.722500040531159, 0.0, 0.0, 0.0, 0.0, 0.0, 0.0, 2.016399878120424, 0.0, 0.0, 0.0, 0.0, 0.0, 0.0, 99999.0, 0.0, 0.0, 0.0, 0.0, 0.0, 0.0, 99999.0, 0.0, 0.0, 0.0, 0.0, 0.0, 0.0, 99999.0]",-0.03,0.05,-0.22,0,0,0,"[-1.0, 0.0, 0.0, 0.0, 0.0, 0.0, 0.0, 0.0, 0.0, 0.0, 0.0, 0.0, 0.0, 0.0, 0.0, 0.0, 0.0, 0.0, 0.0, 0.0, 0.0, 0.0, 0.0, 0.0, 0.0, 0.0, 0.0, 0.0, 0.0, 0.0, 0.0, 0.0, 0.0, 0.0, 0.0, 0.0]",1
1.57E+18,136,1574069807,745586196,map,base_link,7.399982634,-2.021175513,0.45,0.00249119,-0.002684333,-0.217615968,-0.976027602,"[0.792099974536896, 0.0, 0.0, 0.0, 0.0, 0.0, 0.0, 0.792099974536896, 0.0, 0.0, 0.0, 0.0, 0.0, 0.0, 2.016399878120424, 0.0, 0.0, 0.0, 0.0, 0.0, 0.0, 99999.0, 0.0, 0.0, 0.0, 0.0, 0.0, 0.0, 99999.0, 0.0, 0.0, 0.0, 0.0, 0.0, 0.0, 99999.0]",-0.06,0.04,-0.19,0,0,0,"[-1.0, 0.0, 0.0, 0.0, 0.0, 0.0, 0.0, 0.0, 0.0, 0.0, 0.0, 0.0, 0.0, 0.0, 0.0, 0.0, 0.0, 0.0, 0.0, 0.0, 0.0, 0.0, 0.0, 0.0, 0.0, 0.0, 0.0, 0.0, 0.0, 0.0, 0.0, 0.0, 0.0, 0.0, 0.0, 0.0]",1
1.57E+18,137,1574069808,26025009,map,base_link,7.374494818,-2.032280934,0.507,0.000795175,0.002047361,-0.216810602,-0.976211216,"[0.792099974536896, 0.0, 0.0, 0.0, 0.0, 0.0, 0.0, 0.792099974536896, 0.0, 0.0, 0.0, 0.0, 0.0, 0.0, 2.016399878120424, 0.0, 0.0, 0.0, 0.0, 0.0, 0.0, 99999.0, 0.0, 0.0, 0.0, 0.0, 0.0, 0.0, 99999.0, 0.0, 0.0, 0.0, 0.0, 0.0, 0.0, 99999.0]",-0.07,0,-0.19,0,0,0,"[-1.0, 0.0, 0.0, 0.0, 0.0, 0.0, 0.0, 0.0, 0.0, 0.0, 0.0, 0.0, 0.0, 0.0, 0.0, 0.0, 0.0, 0.0, 0.0, 0.0, 0.0, 0.0, 0.0, 0.0, 0.0, 0.0, 0.0, 0.0, 0.0, 0.0, 0.0, 0.0, 0.0, 0.0, 0.0, 0.0]",1
1.57E+18,138,1574069808,312139810,map,base_link,7.399982727,-2.021175538,0.533,7.11E-06,0.007675994,-0.212299931,-0.977174405,"[0.722500040531159, 0.0, 0.0, 0.0, 0.0, 0.0, 0.0, 0.722500040531159, 0.0, 0.0, 0.0, 0.0, 0.0, 0.0, 2.016399878120424, 0.0, 0.0, 0.0, 0.0, 0.0, 0.0, 99999.0, 0.0, 0.0, 0.0, 0.0, 0.0, 0.0, 99999.0, 0.0, 0.0, 0.0, 0.0, 0.0, 0.0, 99999.0]",-0.05,0,-0.11,0,0,0,"[-1.0, 0.0, 0.0, 0.0, 0.0, 0.0, 0.0, 0.0, 0.0, 0.0, 0.0, 0.0, 0.0, 0.0, 0.0, 0.0, 0.0, 0.0, 0.0, 0.0, 0.0, 0.0, 0.0, 0.0, 0.0, 0.0, 0.0, 0.0, 0.0, 0.0, 0.0, 0.0, 0.0, 0.0, 0.0, 0.0]",1
1.57E+18,139,1574069808,632191494,map,base_link,7.493438285,-1.998964685,0.536,-0.002984682,0.013864889,-0.190941299,-0.981498995,"[0.722500040531159, 0.0, 0.0, 0.0, 0.0, 0.0, 0.0, 0.722500040531159, 0.0, 0.0, 0.0, 0.0, 0.0, 0.0, 2.016399878120424, 0.0, 0.0, 0.0, 0.0, 0.0, 0.0, 99999.0, 0.0, 0.0, 0.0, 0.0, 0.0, 0.0, 99999.0, 0.0, 0.0, 0.0, 0.0, 0.0, 0.0, 99999.0]",-0.03,0,-0.02,0,0,0,"[-1.0, 0.0, 0.0, 0.0, 0.0, 0.0, 0.0, 0.0, 0.0, 0.0, 0.0, 0.0, 0.0, 0.0, 0.0, 0.0, 0.0, 0.0, 0.0, 0.0, 0.0, 0.0, 0.0, 0.0, 0.0, 0.0, 0.0, 0.0, 0.0, 0.0, 0.0, 0.0, 0.0, 0.0, 0.0, 0.0]",1
1.57E+18,140,1574069808,871890324,map,base_link,7.569901918,-1.976753849,0.538,-0.004636722,0.011258324,-0.153434961,-0.988083733,"[0.722500040531159, 0.0, 0.0, 0.0, 0.0, 0.0, 0.0, 0.722500040531159, 0.0, 0.0, 0.0, 0.0, 0.0, 0.0, 2.016399878120424, 0.0, 0.0, 0.0, 0.0, 0.0, 0.0, 99999.0, 0.0, 0.0, 0.0, 0.0, 0.0, 0.0, 99999.0, 0.0, 0.0, 0.0, 0.0, 0.0, 0.0, 99999.0]",0,0.02,-0.03,0,0,0,"[-1.0, 0.0, 0.0, 0.0, 0.0, 0.0, 0.0, 0.0, 0.0, 0.0, 0.0, 0.0, 0.0, 0.0, 0.0, 0.0, 0.0, 0.0, 0.0, 0.0, 0.0, 0.0, 0.0, 0.0, 0.0, 0.0, 0.0, 0.0, 0.0, 0.0, 0.0, 0.0, 0.0, 0.0, 0.0, 0.0]",1
1.57E+18,141,1574069809,150923494,map,base_link,7.663357498,-1.965648376,0.542,-0.006633987,0.012187942,-0.149507139,-0.988663269,"[0.722500040531159, 0.0, 0.0, 0.0, 0.0, 0.0, 0.0, 0.722500040531159, 0.0, 0.0, 0.0, 0.0, 0.0, 0.0, 2.016399878120424, 0.0, 0.0, 0.0, 0.0, 0.0, 0.0, 99999.0, 0.0, 0.0, 0.0, 0.0, 0.0, 0.0, 99999.0, 0.0, 0.0, 0.0, 0.0, 0.0, 0.0, 99999.0]",0.03,0.01,-0.05,0,0,0,"[-1.0, 0.0, 0.0, 0.0, 0.0, 0.0, 0.0, 0.0, 0.0, 0.0, 0.0, 0.0, 0.0, 0.0, 0.0, 0.0, 0.0, 0.0, 0.0, 0.0, 0.0, 0.0, 0.0, 0.0, 0.0, 0.0, 0.0, 0.0, 0.0, 0.0, 0.0, 0.0, 0.0, 0.0, 0.0, 0.0]",1
1.57E+18,142,1574069809,431444068,map,base_link,7.756813147,-2.010069807,0.562,-0.006841769,0.025849412,-0.170589706,-0.984979264,"[0.722500040531159, 0.0, 0.0, 0.0, 0.0, 0.0, 0.0, 0.722500040531159, 0.0, 0.0, 0.0, 0.0, 0.0, 0.0, 2.016399878120424, 0.0, 0.0, 0.0, 0.0, 0.0, 0.0, 99999.0, 0.0, 0.0, 0.0, 0.0, 0.0, 0.0, 99999.0, 0.0, 0.0, 0.0, 0.0, 0.0, 0.0, 99999.0]",0.05,-0.01,-0.02,0,0,0,"[-1.0, 0.0, 0.0, 0.0, 0.0, 0.0, 0.0, 0.0, 0.0, 0.0, 0.0, 0.0, 0.0, 0.0, 0.0, 0.0, 0.0, 0.0, 0.0, 0.0, 0.0, 0.0, 0.0, 0.0, 0.0, 0.0, 0.0, 0.0, 0.0, 0.0, 0.0, 0.0, 0.0, 0.0, 0.0, 0.0]",1
1.57E+18,143,1574069809,711718626,map,base_link,7.765309237,-2.110018227,0.585,-0.010056926,0.031082987,-0.180569228,-0.983019562,"[0.722500040531159, 0.0, 0.0, 0.0, 0.0, 0.0, 0.0, 0.722500040531159, 0.0, 0.0, 0.0, 0.0, 0.0, 0.0, 2.016399878120424, 0.0, 0.0, 0.0, 0.0, 0.0, 0.0, 99999.0, 0.0, 0.0, 0.0, 0.0, 0.0, 0.0, 99999.0, 0.0, 0.0, 0.0, 0.0, 0.0, 0.0, 99999.0]",0,-0.03,-0.01,0,0,0,"[-1.0, 0.0, 0.0, 0.0, 0.0, 0.0, 0.0, 0.0, 0.0, 0.0, 0.0, 0.0, 0.0, 0.0, 0.0, 0.0, 0.0, 0.0, 0.0, 0.0, 0.0, 0.0, 0.0, 0.0, 0.0, 0.0, 0.0, 0.0, 0.0, 0.0, 0.0, 0.0, 0.0, 0.0, 0.0, 0.0]",1
1.57E+18,144,1574069809,971806444,map,base_link,7.773805234,-2.132228981,0.592,-0.014634187,0.031743577,-0.175316134,-0.983891477,"[0.722500040531159, 0.0, 0.0, 0.0, 0.0, 0.0, 0.0, 0.722500040531159, 0.0, 0.0, 0.0, 0.0, 0.0, 0.0, 2.016399878120424, 0.0, 0.0, 0.0, 0.0, 0.0, 0.0, 99999.0, 0.0, 0.0, 0.0, 0.0, 0.0, 0.0, 99999.0, 0.0, 0.0, 0.0, 0.0, 0.0, 0.0, 99999.0]",-0.01,-0.04,0,0,0,0,"[-1.0, 0.0, 0.0, 0.0, 0.0, 0.0, 0.0, 0.0, 0.0, 0.0, 0.0, 0.0, 0.0, 0.0, 0.0, 0.0, 0.0, 0.0, 0.0, 0.0, 0.0, 0.0, 0.0, 0.0, 0.0, 0.0, 0.0, 0.0, 0.0, 0.0, 0.0, 0.0, 0.0, 0.0, 0.0, 0.0]",1
1.57E+18,145,1574069810,275014752,map,base_link,7.867260723,-2.043385843,0.596,-0.014531546,0.036886666,-0.174914669,-0.983785071,"[0.722500040531159, 0.0, 0.0, 0.0, 0.0, 0.0, 0.0, 0.722500040531159, 0.0, 0.0, 0.0, 0.0, 0.0, 0.0, 2.016399878120424, 0.0, 0.0, 0.0, 0.0, 0.0, 0.0, 99999.0, 0.0, 0.0, 0.0, 0.0, 0.0, 0.0, 99999.0, 0.0, 0.0, 0.0, 0.0, 0.0, 0.0, 99999.0]",0.01,0,0.04,0,0,0,"[-1.0, 0.0, 0.0, 0.0, 0.0, 0.0, 0.0, 0.0, 0.0, 0.0, 0.0, 0.0, 0.0, 0.0, 0.0, 0.0, 0.0, 0.0, 0.0, 0.0, 0.0, 0.0, 0.0, 0.0, 0.0, 0.0, 0.0, 0.0, 0.0, 0.0, 0.0, 0.0, 0.0, 0.0, 0.0, 0.0]",1
1.57E+18,146,1574069810,584994757,map,base_link,8.003196067,-1.987858801,0.606,-0.014220743,0.038566326,-0.159592258,-0.986326883,"[0.722500040531159, 0.0, 0.0, 0.0, 0.0, 0.0, 0.0, 0.722500040531159, 0.0, 0.0, 0.0, 0.0, 0.0, 0.0, 2.016399878120424, 0.0, 0.0, 0.0, 0.0, 0.0, 0.0, 99999.0, 0.0, 0.0, 0.0, 0.0, 0.0, 0.0, 99999.0, 0.0, 0.0, 0.0, 0.0, 0.0, 0.0, 99999.0]",0.06,0.01,0.01,0,0,0,"[-1.0, 0.0, 0.0, 0.0, 0.0, 0.0, 0.0, 0.0, 0.0, 0.0, 0.0, 0.0, 0.0, 0.0, 0.0, 0.0, 0.0, 0.0, 0.0, 0.0, 0.0, 0.0, 0.0, 0.0, 0.0, 0.0, 0.0, 0.0, 0.0, 0.0, 0.0, 0.0, 0.0, 0.0, 0.0, 0.0]",1
1.57E+18,147,1574069810,844444559,map,base_link,8.105147598,-1.965647935,0.612,-0.013898692,0.03635274,-0.160011607,-0.986347601,"[0.722500040531159, 0.0, 0.0, 0.0, 0.0, 0.0, 0.0, 0.722500040531159, 0.0, 0.0, 0.0, 0.0, 0.0, 0.0, 2.016399878120424, 0.0, 0.0, 0.0, 0.0, 0.0, 0.0, 99999.0, 0.0, 0.0, 0.0, 0.0, 0.0, 0.0, 99999.0, 0.0, 0.0, 0.0, 0.0, 0.0, 0.0, 99999.0]",0.06,0.03,0.06,0,0,0,"[-1.0, 0.0, 0.0, 0.0, 0.0, 0.0, 0.0, 0.0, 0.0, 0.0, 0.0, 0.0, 0.0, 0.0, 0.0, 0.0, 0.0, 0.0, 0.0, 0.0, 0.0, 0.0, 0.0, 0.0, 0.0, 0.0, 0.0, 0.0, 0.0, 0.0, 0.0, 0.0, 0.0, 0.0, 0.0, 0.0]",1
1.57E+18,148,1574069811,159034458,map,base_link,8.22409104,-1.932331668,0.62,-0.014256233,0.042597963,-0.173919241,-0.983734858,"[0.722500040531159, 0.0, 0.0, 0.0, 0.0, 0.0, 0.0, 0.722500040531159, 0.0, 0.0, 0.0, 0.0, 0.0, 0.0, 2.016399878120424, 0.0, 0.0, 0.0, 0.0, 0.0, 0.0, 99999.0, 0.0, 0.0, 0.0, 0.0, 0.0, 0.0, 99999.0, 0.0, 0.0, 0.0, 0.0, 0.0, 0.0, 99999.0]",0.1,0.06,0.05,0,0,0,"[-1.0, 0.0, 0.0, 0.0, 0.0, 0.0, 0.0, 0.0, 0.0, 0.0, 0.0, 0.0, 0.0, 0.0, 0.0, 0.0, 0.0, 0.0, 0.0, 0.0, 0.0, 0.0, 0.0, 0.0, 0.0, 0.0, 0.0, 0.0, 0.0, 0.0, 0.0, 0.0, 0.0, 0.0, 0.0, 0.0]",1
1.57E+18,149,1574069811,432780007,map,base_link,8.360026419,-1.887910007,0.655,-0.01266686,0.034604587,-0.190720482,-0.980952482,"[0.722500040531159, 0.0, 0.0, 0.0, 0.0, 0.0, 0.0, 0.722500040531159, 0.0, 0.0, 0.0, 0.0, 0.0, 0.0, 2.016399878120424, 0.0, 0.0, 0.0, 0.0, 0.0, 0.0, 99999.0, 0.0, 0.0, 0.0, 0.0, 0.0, 0.0, 99999.0, 0.0, 0.0, 0.0, 0.0, 0.0, 0.0, 99999.0]",0.14,0.05,0.02,0,0,0,"[-1.0, 0.0, 0.0, 0.0, 0.0, 0.0, 0.0, 0.0, 0.0, 0.0, 0.0, 0.0, 0.0, 0.0, 0.0, 0.0, 0.0, 0.0, 0.0, 0.0, 0.0, 0.0, 0.0, 0.0, 0.0, 0.0, 0.0, 0.0, 0.0, 0.0, 0.0, 0.0, 0.0, 0.0, 0.0, 0.0]",1
1.57E+18,150,1574069811,670008001,map,base_link,8.444986065,-1.865699162,0.695,-0.014981101,0.025145807,-0.195751428,-0.980216626,"[0.722500040531159, 0.0, 0.0, 0.0, 0.0, 0.0, 0.0, 0.722500040531159, 0.0, 0.0, 0.0, 0.0, 0.0, 0.0, 2.016399878120424, 0.0, 0.0, 0.0, 0.0, 0.0, 0.0, 99999.0, 0.0, 0.0, 0.0, 0.0, 0.0, 0.0, 99999.0, 0.0, 0.0, 0.0, 0.0, 0.0, 0.0, 99999.0]",0.15,0.06,0,0,0,0,"[-1.0, 0.0, 0.0, 0.0, 0.0, 0.0, 0.0, 0.0, 0.0, 0.0, 0.0, 0.0, 0.0, 0.0, 0.0, 0.0, 0.0, 0.0, 0.0, 0.0, 0.0, 0.0, 0.0, 0.0, 0.0, 0.0, 0.0, 0.0, 0.0, 0.0, 0.0, 0.0, 0.0, 0.0, 0.0, 0.0]",1
1.57E+18,151,1574069811,965365992,map,base_link,8.470473918,-1.754645349,0.761,-0.013131671,0.017797969,-0.193617994,-0.980827642,"[0.722500040531159, 0.0, 0.0, 0.0, 0.0, 0.0, 0.0, 0.722500040531159, 0.0, 0.0, 0.0, 0.0, 0.0, 0.0, 2.016399878120424, 0.0, 0.0, 0.0, 0.0, 0.0, 0.0, 99999.0, 0.0, 0.0, 0.0, 0.0, 0.0, 0.0, 99999.0, 0.0, 0.0, 0.0, 0.0, 0.0, 0.0, 99999.0]",0.14,0.11,-0.08,0,0,0,"[-1.0, 0.0, 0.0, 0.0, 0.0, 0.0, 0.0, 0.0, 0.0, 0.0, 0.0, 0.0, 0.0, 0.0, 0.0, 0.0, 0.0, 0.0, 0.0, 0.0, 0.0, 0.0, 0.0, 0.0, 0.0, 0.0, 0.0, 0.0, 0.0, 0.0, 0.0, 0.0, 0.0, 0.0, 0.0, 0.0]",1
1.57E+18,152,1574069812,246427316,map,base_link,8.470473898,-1.654696942,0.834,-0.008127534,0.002655402,-0.195413588,-0.98068365,"[0.722500040531159, 0.0, 0.0, 0.0, 0.0, 0.0, 0.0, 0.722500040531159, 0.0, 0.0, 0.0, 0.0, 0.0, 0.0, 2.016399878120424, 0.0, 0.0, 0.0, 0.0, 0.0, 0.0, 99999.0, 0.0, 0.0, 0.0, 0.0, 0.0, 0.0, 99999.0, 0.0, 0.0, 0.0, 0.0, 0.0, 0.0, 99999.0]",0.11,0.14,-0.09,0,0,0,"[-1.0, 0.0, 0.0, 0.0, 0.0, 0.0, 0.0, 0.0, 0.0, 0.0, 0.0, 0.0, 0.0, 0.0, 0.0, 0.0, 0.0, 0.0, 0.0, 0.0, 0.0, 0.0, 0.0, 0.0, 0.0, 0.0, 0.0, 0.0, 0.0, 0.0, 0.0, 0.0, 0.0, 0.0, 0.0, 0.0]",1
1.57E+18,153,1574069812,535666572,map,base_link,8.461977968,-1.588064688,0.919,-0.003007781,-0.014804585,-0.199403377,-0.979801036,"[0.722500040531159, 0.0, 0.0, 0.0, 0.0, 0.0, 0.0, 0.722500040531159, 0.0, 0.0, 0.0, 0.0, 0.0, 0.0, 2.016399878120424, 0.0, 0.0, 0.0, 0.0, 0.0, 0.0, 99999.0, 0.0, 0.0, 0.0, 0.0, 0.0, 0.0, 99999.0, 0.0, 0.0, 0.0, 0.0, 0.0, 0.0, 99999.0]",0.07,0.15,-0.11,0,0,0,"[-1.0, 0.0, 0.0, 0.0, 0.0, 0.0, 0.0, 0.0, 0.0, 0.0, 0.0, 0.0, 0.0, 0.0, 0.0, 0.0, 0.0, 0.0, 0.0, 0.0, 0.0, 0.0, 0.0, 0.0, 0.0, 0.0, 0.0, 0.0, 0.0, 0.0, 0.0, 0.0, 0.0, 0.0, 0.0, 0.0]",1
1.57E+18,154,1574069812,807612219,map,base_link,8.41100234,-1.61027553,1.009,0.002050097,-0.011277202,-0.205084214,-0.978677213,"[0.722500040531159, 0.0, 0.0, 0.0, 0.0, 0.0, 0.0, 0.722500040531159, 0.0, 0.0, 0.0, 0.0, 0.0, 0.0, 2.016399878120424, 0.0, 0.0, 0.0, 0.0, 0.0, 0.0, 99999.0, 0.0, 0.0, 0.0, 0.0, 0.0, 0.0, 99999.0, 0.0, 0.0, 0.0, 0.0, 0.0, 0.0, 99999.0]",0.01,0.11,-0.09,0,0,0,"[-1.0, 0.0, 0.0, 0.0, 0.0, 0.0, 0.0, 0.0, 0.0, 0.0, 0.0, 0.0, 0.0, 0.0, 0.0, 0.0, 0.0, 0.0, 0.0, 0.0, 0.0, 0.0, 0.0, 0.0, 0.0, 0.0, 0.0, 0.0, 0.0, 0.0, 0.0, 0.0, 0.0, 0.0, 0.0, 0.0]",1
1.57E+18,155,1574069813,91715225,map,base_link,8.385514585,-1.621380962,1.096,0.003487763,-0.012408434,-0.20431967,-0.97881936,"[0.722500040531159, 0.0, 0.0, 0.0, 0.0, 0.0, 0.0, 0.722500040531159, 0.0, 0.0, 0.0, 0.0, 0.0, 0.0, 2.016399878120424, 0.0, 0.0, 0.0, 0.0, 0.0, 0.0, 99999.0, 0.0, 0.0, 0.0, 0.0, 0.0, 0.0, 99999.0, 0.0, 0.0, 0.0, 0.0, 0.0, 0.0, 99999.0]",-0.02,0.09,-0.11,0,0,0,"[-1.0, 0.0, 0.0, 0.0, 0.0, 0.0, 0.0, 0.0, 0.0, 0.0, 0.0, 0.0, 0.0, 0.0, 0.0, 0.0, 0.0, 0.0, 0.0, 0.0, 0.0, 0.0, 0.0, 0.0, 0.0, 0.0, 0.0, 0.0, 0.0, 0.0, 0.0, 0.0, 0.0, 0.0, 0.0, 0.0]",1
1.57E+18,156,1574069813,407950368,map,base_link,8.385514691,-1.599170226,1.194,0.020365012,-0.022412011,-0.196632049,-0.980009595,"[0.722500040531159, 0.0, 0.0, 0.0, 0.0, 0.0, 0.0, 0.722500040531159, 0.0, 0.0, 0.0, 0.0, 0.0, 0.0, 2.016399878120424, 0.0, 0.0, 0.0, 0.0, 0.0, 0.0, 99999.0, 0.0, 0.0, 0.0, 0.0, 0.0, 0.0, 99999.0, 0.0, 0.0, 0.0, 0.0, 0.0, 0.0, 99999.0]",-0.03,0.07,-0.15,0,0,0,"[-1.0, 0.0, 0.0, 0.0, 0.0, 0.0, 0.0, 0.0, 0.0, 0.0, 0.0, 0.0, 0.0, 0.0, 0.0, 0.0, 0.0, 0.0, 0.0, 0.0, 0.0, 0.0, 0.0, 0.0, 0.0, 0.0, 0.0, 0.0, 0.0, 0.0, 0.0, 0.0, 0.0, 0.0, 0.0, 0.0]",1
